[
	{
		"id" : 2312924,
		"region_id" : 3220,
		"country_id" : 194,
		"latitude" : 13.54833330,
		"longitude" : -89.66777780,
		"name" : "Acachapa"
	},
	{
		"id" : 2312925,
		"region_id" : 3220,
		"country_id" : 194,
		"latitude" : 13.59277780,
		"longitude" : -89.82750000,
		"name" : "Acajutla"
	},
	{
		"id" : 2312936,
		"region_id" : 3220,
		"country_id" : 194,
		"latitude" : 13.71666670,
		"longitude" : -89.63333330,
		"name" : "Agua Caliente"
	},
	{
		"id" : 2312942,
		"region_id" : 3220,
		"country_id" : 194,
		"latitude" : 13.64916670,
		"longitude" : -89.58333330,
		"name" : "Agua Chuca"
	},
	{
		"id" : 2312956,
		"region_id" : 3220,
		"country_id" : 194,
		"latitude" : 13.70000000,
		"longitude" : -89.75000000,
		"name" : "Agua Santa"
	},
	{
		"id" : 2312959,
		"region_id" : 3220,
		"country_id" : 194,
		"latitude" : 13.64916670,
		"longitude" : -89.58333330,
		"name" : "Agua Shuca"
	},
	{
		"id" : 2312983,
		"region_id" : 3220,
		"country_id" : 194,
		"latitude" : 13.66916670,
		"longitude" : -89.72305560,
		"name" : "Alemán"
	},
	{
		"id" : 2312984,
		"region_id" : 3220,
		"country_id" : 194,
		"latitude" : 13.77111110,
		"longitude" : -89.70166670,
		"name" : "Almendro"
	},
	{
		"id" : 2313015,
		"region_id" : 3220,
		"country_id" : 194,
		"latitude" : 13.80388890,
		"longitude" : -89.73111110,
		"name" : "Anal"
	},
	{
		"id" : 2313014,
		"region_id" : 3220,
		"country_id" : 194,
		"latitude" : 13.78333330,
		"longitude" : -89.73333330,
		"name" : "Anal Abajo"
	},
	{
		"id" : 2313016,
		"region_id" : 3220,
		"country_id" : 194,
		"latitude" : 13.80388890,
		"longitude" : -89.73111110,
		"name" : "Anal Arriba"
	},
	{
		"id" : 2313017,
		"region_id" : 3220,
		"country_id" : 194,
		"latitude" : 13.80388890,
		"longitude" : -89.73111110,
		"name" : "Anal Arriba y Anal Abajo"
	},
	{
		"id" : 2313037,
		"region_id" : 3220,
		"country_id" : 194,
		"latitude" : 13.60361110,
		"longitude" : -89.62027780,
		"name" : "Apancoyo"
	},
	{
		"id" : 2313052,
		"region_id" : 3220,
		"country_id" : 194,
		"latitude" : 13.74361110,
		"longitude" : -89.49888890,
		"name" : "Armenia"
	},
	{
		"id" : 2313059,
		"region_id" : 3220,
		"country_id" : 194,
		"latitude" : 13.60000000,
		"longitude" : -89.83333330,
		"name" : "Atalaya"
	},
	{
		"id" : 2313061,
		"region_id" : 3220,
		"country_id" : 194,
		"latitude" : 13.64083330,
		"longitude" : -89.55138890,
		"name" : "Atiluya"
	},
	{
		"id" : 2313064,
		"region_id" : 3220,
		"country_id" : 194,
		"latitude" : 13.53333330,
		"longitude" : -89.80000000,
		"name" : "Ayacachapa"
	},
	{
		"id" : 2313078,
		"region_id" : 3220,
		"country_id" : 194,
		"latitude" : 13.76194440,
		"longitude" : -89.52666670,
		"name" : "Azacualpa"
	},
	{
		"id" : 2313084,
		"region_id" : 3220,
		"country_id" : 194,
		"latitude" : 13.68333330,
		"longitude" : -89.61666670,
		"name" : "Balsamar"
	},
	{
		"id" : 2313089,
		"region_id" : 3220,
		"country_id" : 194,
		"latitude" : 13.53027780,
		"longitude" : -89.72111110,
		"name" : "Barra Ciega"
	},
	{
		"id" : 2313094,
		"region_id" : 3220,
		"country_id" : 194,
		"latitude" : 13.53333330,
		"longitude" : -89.70000000,
		"name" : "Barra Salada"
	},
	{
		"id" : 2313103,
		"region_id" : 3220,
		"country_id" : 194,
		"latitude" : 13.73333330,
		"longitude" : -89.58333330,
		"name" : "Bebedero"
	},
	{
		"id" : 2313146,
		"region_id" : 3220,
		"country_id" : 194,
		"latitude" : 13.65000000,
		"longitude" : -89.88333330,
		"name" : "Buenos Aires"
	},
	{
		"id" : 2313164,
		"region_id" : 3220,
		"country_id" : 194,
		"latitude" : 13.72361110,
		"longitude" : -89.66222220,
		"name" : "Caluco"
	},
	{
		"id" : 2313206,
		"region_id" : 3220,
		"country_id" : 194,
		"latitude" : 13.72666670,
		"longitude" : -89.69138890,
		"name" : "Cangrejera"
	},
	{
		"id" : 2313217,
		"region_id" : 3220,
		"country_id" : 194,
		"latitude" : 13.70000000,
		"longitude" : -89.75000000,
		"name" : "Cantón Agua Santa"
	},
	{
		"id" : 2313225,
		"region_id" : 3220,
		"country_id" : 194,
		"latitude" : 13.80388890,
		"longitude" : -89.73111110,
		"name" : "Cantón Anal"
	},
	{
		"id" : 2313231,
		"region_id" : 3220,
		"country_id" : 194,
		"latitude" : 13.87472220,
		"longitude" : -89.75250000,
		"name" : "Cantón Buenos Aires"
	},
	{
		"id" : 2313235,
		"region_id" : 3220,
		"country_id" : 194,
		"latitude" : 13.74222220,
		"longitude" : -89.77527780,
		"name" : "Cantón Caulote"
	},
	{
		"id" : 2313238,
		"region_id" : 3220,
		"country_id" : 194,
		"latitude" : 13.81666670,
		"longitude" : -89.68333330,
		"name" : "Cantón Chaparron"
	},
	{
		"id" : 2313240,
		"region_id" : 3220,
		"country_id" : 194,
		"latitude" : 13.66777780,
		"longitude" : -89.69388890,
		"name" : "Cantón Chiquihuat"
	},
	{
		"id" : 2313241,
		"region_id" : 3220,
		"country_id" : 194,
		"latitude" : 13.76722220,
		"longitude" : -89.61777780,
		"name" : "Cantón Chonchon"
	},
	{
		"id" : 2313243,
		"region_id" : 3220,
		"country_id" : 194,
		"latitude" : 13.63333330,
		"longitude" : -89.78333330,
		"name" : "Cantón Coyolito"
	},
	{
		"id" : 2313248,
		"region_id" : 3220,
		"country_id" : 194,
		"latitude" : 13.65000000,
		"longitude" : -89.73583330,
		"name" : "Cantón Eden"
	},
	{
		"id" : 2313249,
		"region_id" : 3220,
		"country_id" : 194,
		"latitude" : 13.66666670,
		"longitude" : -89.56666670,
		"name" : "Canton El Achotal"
	},
	{
		"id" : 2313251,
		"region_id" : 3220,
		"country_id" : 194,
		"latitude" : 13.63333330,
		"longitude" : -89.90000000,
		"name" : "Cantón El Amatal"
	},
	{
		"id" : 2313253,
		"region_id" : 3220,
		"country_id" : 194,
		"latitude" : 13.66250000,
		"longitude" : -89.65527780,
		"name" : "Cantón El Cacao"
	},
	{
		"id" : 2313256,
		"region_id" : 3220,
		"country_id" : 194,
		"latitude" : 13.81666670,
		"longitude" : -89.68333330,
		"name" : "Cantón El Chaparrón"
	},
	{
		"id" : 2313258,
		"region_id" : 3220,
		"country_id" : 194,
		"latitude" : 13.65000000,
		"longitude" : -89.79750000,
		"name" : "Cantón El Coyol"
	},
	{
		"id" : 2313257,
		"region_id" : 3220,
		"country_id" : 194,
		"latitude" : 13.63333330,
		"longitude" : -89.78333330,
		"name" : "Cantón El Coyolar"
	},
	{
		"id" : 2313259,
		"region_id" : 3220,
		"country_id" : 194,
		"latitude" : 13.65000000,
		"longitude" : -89.73583330,
		"name" : "Cantón El Edén"
	},
	{
		"id" : 2313266,
		"region_id" : 3220,
		"country_id" : 194,
		"latitude" : 13.66666670,
		"longitude" : -89.85000000,
		"name" : "Cantón El Morro"
	},
	{
		"id" : 2313275,
		"region_id" : 3220,
		"country_id" : 194,
		"latitude" : 13.62777780,
		"longitude" : -89.84888890,
		"name" : "Cantón El Suncita"
	},
	{
		"id" : 2313298,
		"region_id" : 3220,
		"country_id" : 194,
		"latitude" : 13.63333330,
		"longitude" : -89.78333330,
		"name" : "Cantón La Nueva"
	},
	{
		"id" : 2313306,
		"region_id" : 3220,
		"country_id" : 194,
		"latitude" : 13.70000000,
		"longitude" : -89.61666670,
		"name" : "Cantón Las Flores"
	},
	{
		"id" : 2313309,
		"region_id" : 3220,
		"country_id" : 194,
		"latitude" : 13.81583330,
		"longitude" : -89.57694440,
		"name" : "Cantón Las Lajas"
	},
	{
		"id" : 2313329,
		"region_id" : 3220,
		"country_id" : 194,
		"latitude" : 13.60416670,
		"longitude" : -89.76055560,
		"name" : "Cantón Mira Valles"
	},
	{
		"id" : 2313333,
		"region_id" : 3220,
		"country_id" : 194,
		"latitude" : 13.66666670,
		"longitude" : -89.85000000,
		"name" : "Cantón Morro Grande"
	},
	{
		"id" : 2313341,
		"region_id" : 3220,
		"country_id" : 194,
		"latitude" : 13.70000000,
		"longitude" : -89.58333330,
		"name" : "Cantón Palo Verde"
	},
	{
		"id" : 2313344,
		"region_id" : 3220,
		"country_id" : 194,
		"latitude" : 13.68611110,
		"longitude" : -89.56666670,
		"name" : "Cantón Peña Blanca"
	},
	{
		"id" : 2313346,
		"region_id" : 3220,
		"country_id" : 194,
		"latitude" : 13.73416670,
		"longitude" : -89.62333330,
		"name" : "Cantón Piedra Pacha"
	},
	{
		"id" : 2313348,
		"region_id" : 3220,
		"country_id" : 194,
		"latitude" : 13.73416670,
		"longitude" : -89.62333330,
		"name" : "Cantón Piedras Pachas"
	},
	{
		"id" : 2313354,
		"region_id" : 3220,
		"country_id" : 194,
		"latitude" : 13.53333330,
		"longitude" : -89.80000000,
		"name" : "Cantón Punta Remedios"
	},
	{
		"id" : 2313379,
		"region_id" : 3220,
		"country_id" : 194,
		"latitude" : 13.71666670,
		"longitude" : -89.73333330,
		"name" : "Cantón San Ramón"
	},
	{
		"id" : 2313381,
		"region_id" : 3220,
		"country_id" : 194,
		"latitude" : 13.66666670,
		"longitude" : -89.76666670,
		"name" : "Cantón Santa Emilia"
	},
	{
		"id" : 2313385,
		"region_id" : 3220,
		"country_id" : 194,
		"latitude" : 13.76722220,
		"longitude" : -89.61777780,
		"name" : "Cantón Shonshon"
	},
	{
		"id" : 2313388,
		"region_id" : 3220,
		"country_id" : 194,
		"latitude" : 13.76666670,
		"longitude" : -89.68333330,
		"name" : "Cantón Tapachucut"
	},
	{
		"id" : 2313389,
		"region_id" : 3220,
		"country_id" : 194,
		"latitude" : 13.76666670,
		"longitude" : -89.68333330,
		"name" : "Cantón Tapaschucit"
	},
	{
		"id" : 2313391,
		"region_id" : 3220,
		"country_id" : 194,
		"latitude" : 13.59777780,
		"longitude" : -89.73527780,
		"name" : "Cantón Tonala"
	},
	{
		"id" : 2313392,
		"region_id" : 3220,
		"country_id" : 194,
		"latitude" : 13.76666670,
		"longitude" : -89.68333330,
		"name" : "Cantón Topaschucit"
	},
	{
		"id" : 2313395,
		"region_id" : 3220,
		"country_id" : 194,
		"latitude" : 13.65000000,
		"longitude" : -89.81666670,
		"name" : "Cantón Valle Nuevo"
	},
	{
		"id" : 2313424,
		"region_id" : 3220,
		"country_id" : 194,
		"latitude" : 13.81361110,
		"longitude" : -89.72250000,
		"name" : "Casamulco"
	},
	{
		"id" : 2313436,
		"region_id" : 3220,
		"country_id" : 194,
		"latitude" : 13.65000000,
		"longitude" : -89.88333330,
		"name" : "Caserío Buenos Aires"
	},
	{
		"id" : 2313481,
		"region_id" : 3220,
		"country_id" : 194,
		"latitude" : 13.65000000,
		"longitude" : -89.79750000,
		"name" : "Caserío El Coyolar"
	},
	{
		"id" : 2313502,
		"region_id" : 3220,
		"country_id" : 194,
		"latitude" : 13.57222220,
		"longitude" : -89.71722220,
		"name" : "Caserío El Presidio"
	},
	{
		"id" : 2313549,
		"region_id" : 3220,
		"country_id" : 194,
		"latitude" : 13.73305560,
		"longitude" : -89.53222220,
		"name" : "Caserío La Puerta"
	},
	{
		"id" : 2313596,
		"region_id" : 3220,
		"country_id" : 194,
		"latitude" : 13.60416670,
		"longitude" : -89.76055560,
		"name" : "Caserío Miravalle"
	},
	{
		"id" : 2313608,
		"region_id" : 3220,
		"country_id" : 194,
		"latitude" : 13.57222220,
		"longitude" : -89.71722220,
		"name" : "Caserío Presidio"
	},
	{
		"id" : 2313658,
		"region_id" : 3220,
		"country_id" : 194,
		"latitude" : 13.84333330,
		"longitude" : -89.69833330,
		"name" : "Caserío Valle Nuevo"
	},
	{
		"id" : 2313652,
		"region_id" : 3220,
		"country_id" : 194,
		"latitude" : 13.78333330,
		"longitude" : -89.53333330,
		"name" : "Caseríos Los Mangos"
	},
	{
		"id" : 2313666,
		"region_id" : 3220,
		"country_id" : 194,
		"latitude" : 13.74222220,
		"longitude" : -89.77527780,
		"name" : "Caulote"
	},
	{
		"id" : 2313671,
		"region_id" : 3220,
		"country_id" : 194,
		"latitude" : 13.73333330,
		"longitude" : -89.63333330,
		"name" : "Ceiba del Charco"
	},
	{
		"id" : 2313681,
		"region_id" : 3220,
		"country_id" : 194,
		"latitude" : 13.70000000,
		"longitude" : -89.63333330,
		"name" : "Cerro Alto"
	},
	{
		"id" : 2313687,
		"region_id" : 3220,
		"country_id" : 194,
		"latitude" : 13.70000000,
		"longitude" : -89.61666670,
		"name" : "Cerro de Las Flores"
	},
	{
		"id" : 2313720,
		"region_id" : 3220,
		"country_id" : 194,
		"latitude" : 13.69250000,
		"longitude" : -89.68138890,
		"name" : "Chapina"
	},
	{
		"id" : 2313738,
		"region_id" : 3220,
		"country_id" : 194,
		"latitude" : 13.67527780,
		"longitude" : -89.53222220,
		"name" : "Chilata"
	},
	{
		"id" : 2313750,
		"region_id" : 3220,
		"country_id" : 194,
		"latitude" : 13.66777780,
		"longitude" : -89.69388890,
		"name" : "Chiquihuat"
	},
	{
		"id" : 2313756,
		"region_id" : 3220,
		"country_id" : 194,
		"latitude" : 13.75000000,
		"longitude" : -89.66666670,
		"name" : "Chorro Abajo"
	},
	{
		"id" : 2313757,
		"region_id" : 3220,
		"country_id" : 194,
		"latitude" : 13.76666670,
		"longitude" : -89.65000000,
		"name" : "Chorro Arriba"
	},
	{
		"id" : 2313775,
		"region_id" : 3220,
		"country_id" : 194,
		"latitude" : 13.71888890,
		"longitude" : -89.72416670,
		"name" : "Ciudad de Sonsonate"
	},
	{
		"id" : 2313777,
		"region_id" : 3220,
		"country_id" : 194,
		"latitude" : 13.53305560,
		"longitude" : -89.81916670,
		"name" : "Club Salinitas"
	},
	{
		"id" : 2313788,
		"region_id" : 3220,
		"country_id" : 194,
		"latitude" : 13.65000000,
		"longitude" : -89.88333330,
		"name" : "Colonia Buenos Aires"
	},
	{
		"id" : 2313823,
		"region_id" : 3220,
		"country_id" : 194,
		"latitude" : 13.70000000,
		"longitude" : -89.65000000,
		"name" : "Comalapa"
	},
	{
		"id" : 2313834,
		"region_id" : 3220,
		"country_id" : 194,
		"latitude" : 13.66666670,
		"longitude" : -89.73333330,
		"name" : "Conacaste Herrado"
	},
	{
		"id" : 2313870,
		"region_id" : 3220,
		"country_id" : 194,
		"latitude" : 13.63333330,
		"longitude" : -89.65000000,
		"name" : "Coquiama"
	},
	{
		"id" : 2313877,
		"region_id" : 3220,
		"country_id" : 194,
		"latitude" : 13.54611110,
		"longitude" : -89.63000000,
		"name" : "Corozal"
	},
	{
		"id" : 2313893,
		"region_id" : 3220,
		"country_id" : 194,
		"latitude" : 13.76666670,
		"longitude" : -89.66666670,
		"name" : "Cruz Grande"
	},
	{
		"id" : 2313895,
		"region_id" : 3220,
		"country_id" : 194,
		"latitude" : 13.60000000,
		"longitude" : -89.73333330,
		"name" : "Cruz Verde"
	},
	{
		"id" : 2313905,
		"region_id" : 3220,
		"country_id" : 194,
		"latitude" : 13.63666670,
		"longitude" : -89.60361110,
		"name" : "Cuisnahuat"
	},
	{
		"id" : 2313910,
		"region_id" : 3220,
		"country_id" : 194,
		"latitude" : 13.75083330,
		"longitude" : -89.63361110,
		"name" : "Cuntán"
	},
	{
		"id" : 2313911,
		"region_id" : 3220,
		"country_id" : 194,
		"latitude" : 13.66666670,
		"longitude" : -89.81666670,
		"name" : "Cupatacho"
	},
	{
		"id" : 2313917,
		"region_id" : 3220,
		"country_id" : 194,
		"latitude" : 13.81361110,
		"longitude" : -89.72250000,
		"name" : "Cusamaluco"
	},
	{
		"id" : 2313922,
		"region_id" : 3220,
		"country_id" : 194,
		"latitude" : 13.76361110,
		"longitude" : -89.62861110,
		"name" : "Cuyagualo"
	},
	{
		"id" : 2313927,
		"region_id" : 3220,
		"country_id" : 194,
		"latitude" : 13.77138890,
		"longitude" : -89.77250000,
		"name" : "Cuyuapa"
	},
	{
		"id" : 2313926,
		"region_id" : 3220,
		"country_id" : 194,
		"latitude" : 13.70722220,
		"longitude" : -89.76833330,
		"name" : "Cuyuapa Abajo"
	},
	{
		"id" : 2313954,
		"region_id" : 3220,
		"country_id" : 194,
		"latitude" : 13.66666670,
		"longitude" : -89.56666670,
		"name" : "El Achiotal"
	},
	{
		"id" : 2313958,
		"region_id" : 3220,
		"country_id" : 194,
		"latitude" : 13.66666670,
		"longitude" : -89.56666670,
		"name" : "El Achotal"
	},
	{
		"id" : 2313968,
		"region_id" : 3220,
		"country_id" : 194,
		"latitude" : 13.75000000,
		"longitude" : -89.71666670,
		"name" : "El Almendro"
	},
	{
		"id" : 2313974,
		"region_id" : 3220,
		"country_id" : 194,
		"latitude" : 13.63333330,
		"longitude" : -89.90000000,
		"name" : "El Amatal"
	},
	{
		"id" : 2314000,
		"region_id" : 3220,
		"country_id" : 194,
		"latitude" : 13.83250000,
		"longitude" : -89.68388890,
		"name" : "El Arenal"
	},
	{
		"id" : 2314003,
		"region_id" : 3220,
		"country_id" : 194,
		"latitude" : 13.68333330,
		"longitude" : -89.61666670,
		"name" : "El Balsamar"
	},
	{
		"id" : 2314009,
		"region_id" : 3220,
		"country_id" : 194,
		"latitude" : 13.72666670,
		"longitude" : -89.58055560,
		"name" : "El Bebedero"
	},
	{
		"id" : 2314027,
		"region_id" : 3220,
		"country_id" : 194,
		"latitude" : 13.66250000,
		"longitude" : -89.65527780,
		"name" : "El Cacao"
	},
	{
		"id" : 2314040,
		"region_id" : 3220,
		"country_id" : 194,
		"latitude" : 13.81666670,
		"longitude" : -89.71666670,
		"name" : "El Canelo"
	},
	{
		"id" : 2314078,
		"region_id" : 3220,
		"country_id" : 194,
		"latitude" : 13.73333330,
		"longitude" : -89.73333330,
		"name" : "El Carrizal"
	},
	{
		"id" : 2314085,
		"region_id" : 3220,
		"country_id" : 194,
		"latitude" : 13.68333330,
		"longitude" : -89.63333330,
		"name" : "El Castaño"
	},
	{
		"id" : 2314090,
		"region_id" : 3220,
		"country_id" : 194,
		"latitude" : 13.74222220,
		"longitude" : -89.77527780,
		"name" : "El Caulote"
	},
	{
		"id" : 2314102,
		"region_id" : 3220,
		"country_id" : 194,
		"latitude" : 13.75805560,
		"longitude" : -89.73611110,
		"name" : "El Cerrito"
	},
	{
		"id" : 2314109,
		"region_id" : 3220,
		"country_id" : 194,
		"latitude" : 13.71250000,
		"longitude" : -89.52166670,
		"name" : "El Cerro"
	},
	{
		"id" : 2314120,
		"region_id" : 3220,
		"country_id" : 194,
		"latitude" : 13.81666670,
		"longitude" : -89.68333330,
		"name" : "El Chaparrón"
	},
	{
		"id" : 2314185,
		"region_id" : 3220,
		"country_id" : 194,
		"latitude" : 13.54611110,
		"longitude" : -89.63000000,
		"name" : "El Corosal"
	},
	{
		"id" : 2314188,
		"region_id" : 3220,
		"country_id" : 194,
		"latitude" : 13.54611110,
		"longitude" : -89.63000000,
		"name" : "El Corozal"
	},
	{
		"id" : 2314198,
		"region_id" : 3220,
		"country_id" : 194,
		"latitude" : 13.63333330,
		"longitude" : -89.78333330,
		"name" : "El Coyol"
	},
	{
		"id" : 2314208,
		"region_id" : 3220,
		"country_id" : 194,
		"latitude" : 13.81361110,
		"longitude" : -89.72250000,
		"name" : "El Cusumuluco"
	},
	{
		"id" : 2314228,
		"region_id" : 3220,
		"country_id" : 194,
		"latitude" : 13.65000000,
		"longitude" : -89.73583330,
		"name" : "El Edén"
	},
	{
		"id" : 2314252,
		"region_id" : 3220,
		"country_id" : 194,
		"latitude" : 13.58333330,
		"longitude" : -89.80000000,
		"name" : "El Flor"
	},
	{
		"id" : 2314275,
		"region_id" : 3220,
		"country_id" : 194,
		"latitude" : 13.69277780,
		"longitude" : -89.71833330,
		"name" : "El Guayabo"
	},
	{
		"id" : 2314288,
		"region_id" : 3220,
		"country_id" : 194,
		"latitude" : 13.66666670,
		"longitude" : -89.73333330,
		"name" : "El Herrado"
	},
	{
		"id" : 2314294,
		"region_id" : 3220,
		"country_id" : 194,
		"latitude" : 13.74111110,
		"longitude" : -89.69250000,
		"name" : "El Huiscoyolate"
	},
	{
		"id" : 2314396,
		"region_id" : 3220,
		"country_id" : 194,
		"latitude" : 13.80333330,
		"longitude" : -89.77916670,
		"name" : "El Matazano"
	},
	{
		"id" : 2314407,
		"region_id" : 3220,
		"country_id" : 194,
		"latitude" : 13.73333330,
		"longitude" : -89.70000000,
		"name" : "El Mojón"
	},
	{
		"id" : 2314411,
		"region_id" : 3220,
		"country_id" : 194,
		"latitude" : 13.81666670,
		"longitude" : -89.75000000,
		"name" : "El Monarca"
	},
	{
		"id" : 2314484,
		"region_id" : 3220,
		"country_id" : 194,
		"latitude" : 13.61666670,
		"longitude" : -89.56666670,
		"name" : "El Paraíso"
	},
	{
		"id" : 2314558,
		"region_id" : 3220,
		"country_id" : 194,
		"latitude" : 13.57222220,
		"longitude" : -89.71722220,
		"name" : "El Presidio"
	},
	{
		"id" : 2314563,
		"region_id" : 3220,
		"country_id" : 194,
		"latitude" : 13.71500000,
		"longitude" : -89.79833330,
		"name" : "El Pueblo de Santo Domingo de Guzmán"
	},
	{
		"id" : 2314566,
		"region_id" : 3220,
		"country_id" : 194,
		"latitude" : 13.81666670,
		"longitude" : -89.75000000,
		"name" : "El Puente"
	},
	{
		"id" : 2314612,
		"region_id" : 3220,
		"country_id" : 194,
		"latitude" : 13.77305560,
		"longitude" : -89.49055560,
		"name" : "El Rosario"
	},
	{
		"id" : 2314623,
		"region_id" : 3220,
		"country_id" : 194,
		"latitude" : 13.68194440,
		"longitude" : -89.81750000,
		"name" : "El Salamo"
	},
	{
		"id" : 2314640,
		"region_id" : 3220,
		"country_id" : 194,
		"latitude" : 13.70000000,
		"longitude" : -89.55000000,
		"name" : "El Sauce"
	},
	{
		"id" : 2314649,
		"region_id" : 3220,
		"country_id" : 194,
		"latitude" : 13.75000000,
		"longitude" : -89.71666670,
		"name" : "El Sisimitepet"
	},
	{
		"id" : 2314662,
		"region_id" : 3220,
		"country_id" : 194,
		"latitude" : 13.62777780,
		"longitude" : -89.84888890,
		"name" : "El Suncita"
	},
	{
		"id" : 2314664,
		"region_id" : 3220,
		"country_id" : 194,
		"latitude" : 13.75472220,
		"longitude" : -89.56027780,
		"name" : "El Sunza"
	},
	{
		"id" : 2314733,
		"region_id" : 3220,
		"country_id" : 194,
		"latitude" : 13.68333330,
		"longitude" : -89.55000000,
		"name" : "El Triunfo"
	},
	{
		"id" : 2314774,
		"region_id" : 3220,
		"country_id" : 194,
		"latitude" : 13.72638890,
		"longitude" : -89.62888890,
		"name" : "El Zapote"
	},
	{
		"id" : 2314779,
		"region_id" : 3220,
		"country_id" : 194,
		"latitude" : 13.70250000,
		"longitude" : -89.81361110,
		"name" : "El Zarzalito"
	},
	{
		"id" : 2314785,
		"region_id" : 3220,
		"country_id" : 194,
		"latitude" : 13.68777780,
		"longitude" : -89.80027780,
		"name" : "El Zope"
	},
	{
		"id" : 2314788,
		"region_id" : 3220,
		"country_id" : 194,
		"latitude" : 13.75472220,
		"longitude" : -89.56027780,
		"name" : "El Zunza"
	},
	{
		"id" : 2314807,
		"region_id" : 3220,
		"country_id" : 194,
		"latitude" : 13.71666670,
		"longitude" : -89.51666670,
		"name" : "Eugenio"
	},
	{
		"id" : 2314829,
		"region_id" : 3220,
		"country_id" : 194,
		"latitude" : 13.71666670,
		"longitude" : -89.56666670,
		"name" : "Finca Las Mercedes"
	},
	{
		"id" : 2314832,
		"region_id" : 3220,
		"country_id" : 194,
		"latitude" : 13.56666670,
		"longitude" : -89.61666670,
		"name" : "Finca Linda Vista"
	},
	{
		"id" : 2314835,
		"region_id" : 3220,
		"country_id" : 194,
		"latitude" : 13.81666670,
		"longitude" : -89.75000000,
		"name" : "Finca Monarca"
	},
	{
		"id" : 2314837,
		"region_id" : 3220,
		"country_id" : 194,
		"latitude" : 13.80000000,
		"longitude" : -89.53333330,
		"name" : "Finca San Cayetano"
	},
	{
		"id" : 2314866,
		"region_id" : 3220,
		"country_id" : 194,
		"latitude" : 13.78472220,
		"longitude" : -89.75277780,
		"name" : "Guacamaya"
	},
	{
		"id" : 2314869,
		"region_id" : 3220,
		"country_id" : 194,
		"latitude" : 13.78472220,
		"longitude" : -89.75277780,
		"name" : "Guacamayo"
	},
	{
		"id" : 2314928,
		"region_id" : 3220,
		"country_id" : 194,
		"latitude" : 13.74361110,
		"longitude" : -89.49888890,
		"name" : "Guaymoco"
	},
	{
		"id" : 2314943,
		"region_id" : 3220,
		"country_id" : 194,
		"latitude" : 13.76194440,
		"longitude" : -89.52666670,
		"name" : "Hacienda Achacualpa"
	},
	{
		"id" : 2314949,
		"region_id" : 3220,
		"country_id" : 194,
		"latitude" : 13.60000000,
		"longitude" : -89.83333330,
		"name" : "Hacienda Atalaya"
	},
	{
		"id" : 2314952,
		"region_id" : 3220,
		"country_id" : 194,
		"latitude" : 13.76194440,
		"longitude" : -89.52666670,
		"name" : "Hacienda Azacualpa"
	},
	{
		"id" : 2314971,
		"region_id" : 3220,
		"country_id" : 194,
		"latitude" : 13.70000000,
		"longitude" : -89.65000000,
		"name" : "Hacienda Comalapa"
	},
	{
		"id" : 2314980,
		"region_id" : 3220,
		"country_id" : 194,
		"latitude" : 13.73333330,
		"longitude" : -89.58333330,
		"name" : "Hacienda El Bebedero"
	},
	{
		"id" : 2314981,
		"region_id" : 3220,
		"country_id" : 194,
		"latitude" : 13.66666670,
		"longitude" : -89.65000000,
		"name" : "Hacienda El Cacao"
	},
	{
		"id" : 2314987,
		"region_id" : 3220,
		"country_id" : 194,
		"latitude" : 13.63333330,
		"longitude" : -89.78333330,
		"name" : "Hacienda El Coyol"
	},
	{
		"id" : 2315002,
		"region_id" : 3220,
		"country_id" : 194,
		"latitude" : 13.77305560,
		"longitude" : -89.49055560,
		"name" : "Hacienda El Rosario"
	},
	{
		"id" : 2315007,
		"region_id" : 3220,
		"country_id" : 194,
		"latitude" : 13.68333330,
		"longitude" : -89.80000000,
		"name" : "Hacienda El Zope"
	},
	{
		"id" : 2315008,
		"region_id" : 3220,
		"country_id" : 194,
		"latitude" : 13.75472220,
		"longitude" : -89.56027780,
		"name" : "Hacienda Finca el Zunza"
	},
	{
		"id" : 2315013,
		"region_id" : 3220,
		"country_id" : 194,
		"latitude" : 13.75472220,
		"longitude" : -89.56027780,
		"name" : "Hacienda Ingeniero el Zunza"
	},
	{
		"id" : 2315020,
		"region_id" : 3220,
		"country_id" : 194,
		"latitude" : 13.65000000,
		"longitude" : -89.71666670,
		"name" : "Hacienda La Bolsona"
	},
	{
		"id" : 2315039,
		"region_id" : 3220,
		"country_id" : 194,
		"latitude" : 13.76666670,
		"longitude" : -89.58333330,
		"name" : "Hacienda La Joya"
	},
	{
		"id" : 2315060,
		"region_id" : 3220,
		"country_id" : 194,
		"latitude" : 13.73333330,
		"longitude" : -89.56666670,
		"name" : "Hacienda Los Lagartos"
	},
	{
		"id" : 2315086,
		"region_id" : 3220,
		"country_id" : 194,
		"latitude" : 13.58333330,
		"longitude" : -89.70000000,
		"name" : "Hacienda Ojo de Agua"
	},
	{
		"id" : 2315087,
		"region_id" : 3220,
		"country_id" : 194,
		"latitude" : 13.58333330,
		"longitude" : -89.70000000,
		"name" : "Hacienda Ojos de Agua"
	},
	{
		"id" : 2315102,
		"region_id" : 3220,
		"country_id" : 194,
		"latitude" : 13.60000000,
		"longitude" : -89.80000000,
		"name" : "Hacienda San Antonio"
	},
	{
		"id" : 2315117,
		"region_id" : 3220,
		"country_id" : 194,
		"latitude" : 13.78750000,
		"longitude" : -89.55888890,
		"name" : "Hacienda San Isidro"
	},
	{
		"id" : 2315131,
		"region_id" : 3220,
		"country_id" : 194,
		"latitude" : 13.63333330,
		"longitude" : -89.81666670,
		"name" : "Hacienda San Pedro"
	},
	{
		"id" : 2315143,
		"region_id" : 3220,
		"country_id" : 194,
		"latitude" : 13.66666670,
		"longitude" : -89.75000000,
		"name" : "Hacienda Santa Clara"
	},
	{
		"id" : 2315146,
		"region_id" : 3220,
		"country_id" : 194,
		"latitude" : 13.66666670,
		"longitude" : -89.76666670,
		"name" : "Hacienda Santa Emilia"
	},
	{
		"id" : 2315200,
		"region_id" : 3220,
		"country_id" : 194,
		"latitude" : 13.74111110,
		"longitude" : -89.69250000,
		"name" : "Huiscoyolate"
	},
	{
		"id" : 2315218,
		"region_id" : 3220,
		"country_id" : 194,
		"latitude" : 13.68333330,
		"longitude" : -89.73333330,
		"name" : "Ingenio La Fincona"
	},
	{
		"id" : 2315226,
		"region_id" : 3220,
		"country_id" : 194,
		"latitude" : 13.61000000,
		"longitude" : -89.58527780,
		"name" : "Ishuatán"
	},
	{
		"id" : 2315227,
		"region_id" : 3220,
		"country_id" : 194,
		"latitude" : 13.84277780,
		"longitude" : -89.56027780,
		"name" : "Isla del Cerro"
	},
	{
		"id" : 2315234,
		"region_id" : 3220,
		"country_id" : 194,
		"latitude" : 13.74472220,
		"longitude" : -89.67305560,
		"name" : "Izalco"
	},
	{
		"id" : 2315278,
		"region_id" : 3220,
		"country_id" : 194,
		"latitude" : 13.75472220,
		"longitude" : -89.58611110,
		"name" : "Joya de Cerén"
	},
	{
		"id" : 2315301,
		"region_id" : 3220,
		"country_id" : 194,
		"latitude" : 13.84138890,
		"longitude" : -89.74555560,
		"name" : "Juayúa"
	},
	{
		"id" : 2315336,
		"region_id" : 3220,
		"country_id" : 194,
		"latitude" : 13.65000000,
		"longitude" : -89.71666670,
		"name" : "La Bolsona"
	},
	{
		"id" : 2315355,
		"region_id" : 3220,
		"country_id" : 194,
		"latitude" : 13.72666670,
		"longitude" : -89.69138890,
		"name" : "La Cangrejera"
	},
	{
		"id" : 2315379,
		"region_id" : 3220,
		"country_id" : 194,
		"latitude" : 13.69250000,
		"longitude" : -89.68138890,
		"name" : "La Chapina"
	},
	{
		"id" : 2315405,
		"region_id" : 3220,
		"country_id" : 194,
		"latitude" : 13.76666670,
		"longitude" : -89.66666670,
		"name" : "La Cruz Grande"
	},
	{
		"id" : 2315428,
		"region_id" : 3220,
		"country_id" : 194,
		"latitude" : 13.67027780,
		"longitude" : -89.61527780,
		"name" : "La Ensenada"
	},
	{
		"id" : 2315444,
		"region_id" : 3220,
		"country_id" : 194,
		"latitude" : 13.68333330,
		"longitude" : -89.73333330,
		"name" : "La Fincona"
	},
	{
		"id" : 2315453,
		"region_id" : 3220,
		"country_id" : 194,
		"latitude" : 13.86000000,
		"longitude" : -89.75277780,
		"name" : "La Fuente"
	},
	{
		"id" : 2315464,
		"region_id" : 3220,
		"country_id" : 194,
		"latitude" : 13.78472220,
		"longitude" : -89.75277780,
		"name" : "La Guacamaya"
	},
	{
		"id" : 2315502,
		"region_id" : 3220,
		"country_id" : 194,
		"latitude" : 13.76666670,
		"longitude" : -89.58333330,
		"name" : "La Joya"
	},
	{
		"id" : 2315539,
		"region_id" : 3220,
		"country_id" : 194,
		"latitude" : 13.84638890,
		"longitude" : -89.70972220,
		"name" : "La Majada"
	},
	{
		"id" : 2315559,
		"region_id" : 3220,
		"country_id" : 194,
		"latitude" : 13.63333330,
		"longitude" : -89.78333330,
		"name" : "La Nueva"
	},
	{
		"id" : 2315602,
		"region_id" : 3220,
		"country_id" : 194,
		"latitude" : 13.88333330,
		"longitude" : -89.75000000,
		"name" : "La Puente"
	},
	{
		"id" : 2315607,
		"region_id" : 3220,
		"country_id" : 194,
		"latitude" : 13.73305560,
		"longitude" : -89.53222220,
		"name" : "La Puerta"
	},
	{
		"id" : 2315612,
		"region_id" : 3220,
		"country_id" : 194,
		"latitude" : 13.75000000,
		"longitude" : -89.61666670,
		"name" : "La Quebrada"
	},
	{
		"id" : 2315611,
		"region_id" : 3220,
		"country_id" : 194,
		"latitude" : 13.75000000,
		"longitude" : -89.61666670,
		"name" : "La Quebrada Española"
	},
	{
		"id" : 2315840,
		"region_id" : 3220,
		"country_id" : 194,
		"latitude" : 13.85000000,
		"longitude" : -89.73333330,
		"name" : "La Unión"
	},
	{
		"id" : 2315677,
		"region_id" : 3220,
		"country_id" : 194,
		"latitude" : 13.76416670,
		"longitude" : -89.49527780,
		"name" : "Las Crucitas"
	},
	{
		"id" : 2315690,
		"region_id" : 3220,
		"country_id" : 194,
		"latitude" : 13.68333330,
		"longitude" : -89.73333330,
		"name" : "Las Delicias"
	},
	{
		"id" : 2315698,
		"region_id" : 3220,
		"country_id" : 194,
		"latitude" : 13.70000000,
		"longitude" : -89.61666670,
		"name" : "Las Flores"
	},
	{
		"id" : 2315706,
		"region_id" : 3220,
		"country_id" : 194,
		"latitude" : 13.75000000,
		"longitude" : -89.60000000,
		"name" : "Las Higueras"
	},
	{
		"id" : 2315711,
		"region_id" : 3220,
		"country_id" : 194,
		"latitude" : 13.68805560,
		"longitude" : -89.74250000,
		"name" : "Las Hojas"
	},
	{
		"id" : 2315723,
		"region_id" : 3220,
		"country_id" : 194,
		"latitude" : 13.81583330,
		"longitude" : -89.57694440,
		"name" : "Las Lajas"
	},
	{
		"id" : 2315740,
		"region_id" : 3220,
		"country_id" : 194,
		"latitude" : 13.78527780,
		"longitude" : -89.58861110,
		"name" : "Las Marías"
	},
	{
		"id" : 2315744,
		"region_id" : 3220,
		"country_id" : 194,
		"latitude" : 13.71666670,
		"longitude" : -89.56666670,
		"name" : "Las Mercedes"
	},
	{
		"id" : 2315766,
		"region_id" : 3220,
		"country_id" : 194,
		"latitude" : 13.81666670,
		"longitude" : -89.80000000,
		"name" : "Las Peñas"
	},
	{
		"id" : 2315770,
		"region_id" : 3220,
		"country_id" : 194,
		"latitude" : 13.53333330,
		"longitude" : -89.63333330,
		"name" : "Las Piedras"
	},
	{
		"id" : 2315790,
		"region_id" : 3220,
		"country_id" : 194,
		"latitude" : 13.54833330,
		"longitude" : -89.66777780,
		"name" : "Las Salinas"
	},
	{
		"id" : 2315787,
		"region_id" : 3220,
		"country_id" : 194,
		"latitude" : 13.54833330,
		"longitude" : -89.66777780,
		"name" : "Las Salinas de Ayacachapa"
	},
	{
		"id" : 2315795,
		"region_id" : 3220,
		"country_id" : 194,
		"latitude" : 13.68333330,
		"longitude" : -89.78333330,
		"name" : "Las Tablas"
	},
	{
		"id" : 2315807,
		"region_id" : 3220,
		"country_id" : 194,
		"latitude" : 13.75222220,
		"longitude" : -89.47750000,
		"name" : "Las Tres Ceibas"
	},
	{
		"id" : 2315855,
		"region_id" : 3220,
		"country_id" : 194,
		"latitude" : 13.56666670,
		"longitude" : -89.61666670,
		"name" : "Linda Vista"
	},
	{
		"id" : 2315900,
		"region_id" : 3220,
		"country_id" : 194,
		"latitude" : 13.80000000,
		"longitude" : -89.56666670,
		"name" : "Loma Chata"
	},
	{
		"id" : 2315906,
		"region_id" : 3220,
		"country_id" : 194,
		"latitude" : 13.75500000,
		"longitude" : -89.72444440,
		"name" : "Loma del Muerto"
	},
	{
		"id" : 2315948,
		"region_id" : 3220,
		"country_id" : 194,
		"latitude" : 13.86666670,
		"longitude" : -89.76666670,
		"name" : "Los Anisales"
	},
	{
		"id" : 2315949,
		"region_id" : 3220,
		"country_id" : 194,
		"latitude" : 13.86666670,
		"longitude" : -89.76666670,
		"name" : "Los Anizales"
	},
	{
		"id" : 2315974,
		"region_id" : 3220,
		"country_id" : 194,
		"latitude" : 13.53333330,
		"longitude" : -89.80000000,
		"name" : "Los Cóbanos"
	},
	{
		"id" : 2315995,
		"region_id" : 3220,
		"country_id" : 194,
		"latitude" : 13.68333330,
		"longitude" : -89.61666670,
		"name" : "Los Gramales"
	},
	{
		"id" : 2316020,
		"region_id" : 3220,
		"country_id" : 194,
		"latitude" : 13.73333330,
		"longitude" : -89.56666670,
		"name" : "Los Lagartos"
	},
	{
		"id" : 2316039,
		"region_id" : 3220,
		"country_id" : 194,
		"latitude" : 13.78333330,
		"longitude" : -89.53333330,
		"name" : "Los Mangos"
	},
	{
		"id" : 2316046,
		"region_id" : 3220,
		"country_id" : 194,
		"latitude" : 13.68333330,
		"longitude" : -89.88333330,
		"name" : "Los Méndez"
	},
	{
		"id" : 2316061,
		"region_id" : 3220,
		"country_id" : 194,
		"latitude" : 13.87250000,
		"longitude" : -89.67388890,
		"name" : "Los Naranjos"
	},
	{
		"id" : 2316137,
		"region_id" : 3220,
		"country_id" : 194,
		"latitude" : 13.79527780,
		"longitude" : -89.67638890,
		"name" : "Los Tunalmiles"
	},
	{
		"id" : 2316198,
		"region_id" : 3220,
		"country_id" : 194,
		"latitude" : 13.71666670,
		"longitude" : -89.56666670,
		"name" : "Mercedes"
	},
	{
		"id" : 2316202,
		"region_id" : 3220,
		"country_id" : 194,
		"latitude" : 13.63916670,
		"longitude" : -89.88027780,
		"name" : "Metalío"
	},
	{
		"id" : 2316226,
		"region_id" : 3220,
		"country_id" : 194,
		"latitude" : 13.63333330,
		"longitude" : -89.58333330,
		"name" : "Miramar"
	},
	{
		"id" : 2316229,
		"region_id" : 3220,
		"country_id" : 194,
		"latitude" : 13.60416670,
		"longitude" : -89.76055560,
		"name" : "Miravalle"
	},
	{
		"id" : 2316230,
		"region_id" : 3220,
		"country_id" : 194,
		"latitude" : 13.60416670,
		"longitude" : -89.76055560,
		"name" : "Miravalles"
	},
	{
		"id" : 2316273,
		"region_id" : 3220,
		"country_id" : 194,
		"latitude" : 13.66666670,
		"longitude" : -89.85000000,
		"name" : "Morro Grande"
	},
	{
		"id" : 2316287,
		"region_id" : 3220,
		"country_id" : 194,
		"latitude" : 13.70361110,
		"longitude" : -89.71277780,
		"name" : "Nahuilingo"
	},
	{
		"id" : 2316288,
		"region_id" : 3220,
		"country_id" : 194,
		"latitude" : 13.77750000,
		"longitude" : -89.73666670,
		"name" : "Nahuizalco"
	},
	{
		"id" : 2316289,
		"region_id" : 3220,
		"country_id" : 194,
		"latitude" : 13.70361110,
		"longitude" : -89.71277780,
		"name" : "Nahulingo"
	},
	{
		"id" : 2316298,
		"region_id" : 3220,
		"country_id" : 194,
		"latitude" : 13.77750000,
		"longitude" : -89.73666670,
		"name" : "Nauizalco"
	},
	{
		"id" : 2316358,
		"region_id" : 3220,
		"country_id" : 194,
		"latitude" : 13.87083330,
		"longitude" : -89.72333330,
		"name" : "Ojo de Agua"
	},
	{
		"id" : 2316405,
		"region_id" : 3220,
		"country_id" : 194,
		"latitude" : 13.70000000,
		"longitude" : -89.58333330,
		"name" : "Palo Verde"
	},
	{
		"id" : 2316424,
		"region_id" : 3220,
		"country_id" : 194,
		"latitude" : 13.58666670,
		"longitude" : -89.60972220,
		"name" : "Paso de Canoa"
	},
	{
		"id" : 2316425,
		"region_id" : 3220,
		"country_id" : 194,
		"latitude" : 13.58666670,
		"longitude" : -89.60972220,
		"name" : "Paso de Canoas"
	},
	{
		"id" : 2316437,
		"region_id" : 3220,
		"country_id" : 194,
		"latitude" : 13.68611110,
		"longitude" : -89.56666670,
		"name" : "Peña Blanca"
	},
	{
		"id" : 2316449,
		"region_id" : 3220,
		"country_id" : 194,
		"latitude" : 13.70000000,
		"longitude" : -89.55000000,
		"name" : "Petaca"
	},
	{
		"id" : 2316450,
		"region_id" : 3220,
		"country_id" : 194,
		"latitude" : 13.70000000,
		"longitude" : -89.55000000,
		"name" : "Petacas"
	},
	{
		"id" : 2316460,
		"region_id" : 3220,
		"country_id" : 194,
		"latitude" : 13.71666670,
		"longitude" : -89.70000000,
		"name" : "Piedra de Moler"
	},
	{
		"id" : 2316475,
		"region_id" : 3220,
		"country_id" : 194,
		"latitude" : 13.73416670,
		"longitude" : -89.62333330,
		"name" : "Piedras Pachas"
	},
	{
		"id" : 2316490,
		"region_id" : 3220,
		"country_id" : 194,
		"latitude" : 13.69333330,
		"longitude" : -89.61583330,
		"name" : "Plan de Amayo"
	},
	{
		"id" : 2316572,
		"region_id" : 3220,
		"country_id" : 194,
		"latitude" : 13.76722220,
		"longitude" : -89.72000000,
		"name" : "Puchtán"
	},
	{
		"id" : 2316582,
		"region_id" : 3220,
		"country_id" : 194,
		"latitude" : 13.59277780,
		"longitude" : -89.82750000,
		"name" : "Puerto Acajutla"
	},
	{
		"id" : 2316599,
		"region_id" : 3220,
		"country_id" : 194,
		"latitude" : 13.53333330,
		"longitude" : -89.80000000,
		"name" : "Punta Remedios"
	},
	{
		"id" : 2316600,
		"region_id" : 3220,
		"country_id" : 194,
		"latitude" : 13.76722220,
		"longitude" : -89.72000000,
		"name" : "Pushtán"
	},
	{
		"id" : 2316642,
		"region_id" : 3220,
		"country_id" : 194,
		"latitude" : 13.72000000,
		"longitude" : -89.72305560,
		"name" : "Río Las Monjas"
	},
	{
		"id" : 2316667,
		"region_id" : 3220,
		"country_id" : 194,
		"latitude" : 13.80000000,
		"longitude" : -89.70000000,
		"name" : "Sabana de San Juan"
	},
	{
		"id" : 2316666,
		"region_id" : 3220,
		"country_id" : 194,
		"latitude" : 13.80000000,
		"longitude" : -89.70000000,
		"name" : "Sabana de San Juan Abajo"
	},
	{
		"id" : 2316668,
		"region_id" : 3220,
		"country_id" : 194,
		"latitude" : 13.75000000,
		"longitude" : -89.75000000,
		"name" : "Sabana Grande"
	},
	{
		"id" : 2316671,
		"region_id" : 3220,
		"country_id" : 194,
		"latitude" : 13.80000000,
		"longitude" : -89.70000000,
		"name" : "Sabana San Juan"
	},
	{
		"id" : 2316669,
		"region_id" : 3220,
		"country_id" : 194,
		"latitude" : 13.78333330,
		"longitude" : -89.71666670,
		"name" : "Sabana San Juan Abajo"
	},
	{
		"id" : 2316670,
		"region_id" : 3220,
		"country_id" : 194,
		"latitude" : 13.80000000,
		"longitude" : -89.70000000,
		"name" : "Sabana San Juan Arriba"
	},
	{
		"id" : 2316680,
		"region_id" : 3220,
		"country_id" : 194,
		"latitude" : 13.82861110,
		"longitude" : -89.75833330,
		"name" : "Salcoatitán"
	},
	{
		"id" : 2316681,
		"region_id" : 3220,
		"country_id" : 194,
		"latitude" : 13.82861110,
		"longitude" : -89.75833330,
		"name" : "Salcotitan"
	},
	{
		"id" : 2316691,
		"region_id" : 3220,
		"country_id" : 194,
		"latitude" : 13.53333330,
		"longitude" : -89.80000000,
		"name" : "Salinas"
	},
	{
		"id" : 2316683,
		"region_id" : 3220,
		"country_id" : 194,
		"latitude" : 13.54833330,
		"longitude" : -89.66777780,
		"name" : "Salinas Acachapa"
	},
	{
		"id" : 2316684,
		"region_id" : 3220,
		"country_id" : 194,
		"latitude" : 13.54833330,
		"longitude" : -89.66777780,
		"name" : "Salinas de Ayacachapa"
	},
	{
		"id" : 2316755,
		"region_id" : 3220,
		"country_id" : 194,
		"latitude" : 13.60000000,
		"longitude" : -89.80000000,
		"name" : "San Antonio"
	},
	{
		"id" : 2316721,
		"region_id" : 3220,
		"country_id" : 194,
		"latitude" : 13.71638890,
		"longitude" : -89.73833330,
		"name" : "San Antonio del Monte"
	},
	{
		"id" : 2316788,
		"region_id" : 3220,
		"country_id" : 194,
		"latitude" : 13.80000000,
		"longitude" : -89.53333330,
		"name" : "San Cayetano"
	},
	{
		"id" : 2316812,
		"region_id" : 3220,
		"country_id" : 194,
		"latitude" : 13.71666670,
		"longitude" : -89.51666670,
		"name" : "San Eugenio"
	},
	{
		"id" : 2316876,
		"region_id" : 3220,
		"country_id" : 194,
		"latitude" : 13.78750000,
		"longitude" : -89.55888890,
		"name" : "San Isidro"
	},
	{
		"id" : 2316930,
		"region_id" : 3220,
		"country_id" : 194,
		"latitude" : 13.84638890,
		"longitude" : -89.70972220,
		"name" : "San José La Majada"
	},
	{
		"id" : 2316972,
		"region_id" : 3220,
		"country_id" : 194,
		"latitude" : 13.87944440,
		"longitude" : -89.76750000,
		"name" : "San Juan de Dios"
	},
	{
		"id" : 2317009,
		"region_id" : 3220,
		"country_id" : 194,
		"latitude" : 13.61361110,
		"longitude" : -89.79250000,
		"name" : "San Julián"
	},
	{
		"id" : 2317007,
		"region_id" : 3220,
		"country_id" : 194,
		"latitude" : 13.69611110,
		"longitude" : -89.55916670,
		"name" : "San Julian Cacaluta"
	},
	{
		"id" : 2317022,
		"region_id" : 3220,
		"country_id" : 194,
		"latitude" : 13.59222220,
		"longitude" : -89.66222220,
		"name" : "San Lucas"
	},
	{
		"id" : 2317035,
		"region_id" : 3220,
		"country_id" : 194,
		"latitude" : 13.76916670,
		"longitude" : -89.59388890,
		"name" : "San Luis"
	},
	{
		"id" : 2317100,
		"region_id" : 3220,
		"country_id" : 194,
		"latitude" : 13.63333330,
		"longitude" : -89.81666670,
		"name" : "San Pedro"
	},
	{
		"id" : 2317117,
		"region_id" : 3220,
		"country_id" : 194,
		"latitude" : 13.76666670,
		"longitude" : -89.80000000,
		"name" : "San Rafael"
	},
	{
		"id" : 2317128,
		"region_id" : 3220,
		"country_id" : 194,
		"latitude" : 13.71666670,
		"longitude" : -89.73333330,
		"name" : "San Ramón"
	},
	{
		"id" : 2317162,
		"region_id" : 3220,
		"country_id" : 194,
		"latitude" : 13.78611110,
		"longitude" : -89.76611110,
		"name" : "Santa Catarina Masahuat"
	},
	{
		"id" : 2317163,
		"region_id" : 3220,
		"country_id" : 194,
		"latitude" : 13.78611110,
		"longitude" : -89.76611110,
		"name" : "Santa Catarina Mazahuat"
	},
	{
		"id" : 2317170,
		"region_id" : 3220,
		"country_id" : 194,
		"latitude" : 13.66666670,
		"longitude" : -89.75000000,
		"name" : "Santa Clara"
	},
	{
		"id" : 2317200,
		"region_id" : 3220,
		"country_id" : 194,
		"latitude" : 13.66666670,
		"longitude" : -89.76666670,
		"name" : "Santa Emilia"
	},
	{
		"id" : 2317206,
		"region_id" : 3220,
		"country_id" : 194,
		"latitude" : 13.61000000,
		"longitude" : -89.58527780,
		"name" : "Santa Isabel Ishuatán"
	},
	{
		"id" : 2317268,
		"region_id" : 3220,
		"country_id" : 194,
		"latitude" : 13.71500000,
		"longitude" : -89.79833330,
		"name" : "Santo Domingo"
	},
	{
		"id" : 2317264,
		"region_id" : 3220,
		"country_id" : 194,
		"latitude" : 13.71500000,
		"longitude" : -89.79833330,
		"name" : "Santo Domingo de Guzmán"
	},
	{
		"id" : 2317265,
		"region_id" : 3220,
		"country_id" : 194,
		"latitude" : 13.71500000,
		"longitude" : -89.79833330,
		"name" : "Santo Domingo Guzmán"
	},
	{
		"id" : 2317288,
		"region_id" : 3220,
		"country_id" : 194,
		"latitude" : 13.76722220,
		"longitude" : -89.61777780,
		"name" : "Shan Shon"
	},
	{
		"id" : 2317289,
		"region_id" : 3220,
		"country_id" : 194,
		"latitude" : 13.76722220,
		"longitude" : -89.61777780,
		"name" : "Shon Shon"
	},
	{
		"id" : 2317306,
		"region_id" : 3220,
		"country_id" : 194,
		"latitude" : 13.75000000,
		"longitude" : -89.71666670,
		"name" : "Sisimitepec"
	},
	{
		"id" : 2317307,
		"region_id" : 3220,
		"country_id" : 194,
		"latitude" : 13.75000000,
		"longitude" : -89.71666670,
		"name" : "Sisimitepet"
	},
	{
		"id" : 2317346,
		"region_id" : 3220,
		"country_id" : 194,
		"latitude" : 13.71888890,
		"longitude" : -89.72416670,
		"name" : "Sonsonate"
	},
	{
		"id" : 2317347,
		"region_id" : 3220,
		"country_id" : 194,
		"latitude" : 13.73416670,
		"longitude" : -89.71472220,
		"name" : "Sonzacate"
	},
	{
		"id" : 2317360,
		"region_id" : 3220,
		"country_id" : 194,
		"latitude" : 13.62777780,
		"longitude" : -89.84888890,
		"name" : "Suncita"
	},
	{
		"id" : 2317362,
		"region_id" : 3220,
		"country_id" : 194,
		"latitude" : 13.70388890,
		"longitude" : -89.65694440,
		"name" : "Sunquiat"
	},
	{
		"id" : 2317366,
		"region_id" : 3220,
		"country_id" : 194,
		"latitude" : 13.70388890,
		"longitude" : -89.65694440,
		"name" : "Suquiat"
	},
	{
		"id" : 2317386,
		"region_id" : 3220,
		"country_id" : 194,
		"latitude" : 13.82305560,
		"longitude" : -89.70750000,
		"name" : "Tajcuilujlán"
	},
	{
		"id" : 2317389,
		"region_id" : 3220,
		"country_id" : 194,
		"latitude" : 13.78333330,
		"longitude" : -89.68333330,
		"name" : "Talcomunca"
	},
	{
		"id" : 2317411,
		"region_id" : 3220,
		"country_id" : 194,
		"latitude" : 13.76666670,
		"longitude" : -89.68333330,
		"name" : "Tapachucut"
	},
	{
		"id" : 2317414,
		"region_id" : 3220,
		"country_id" : 194,
		"latitude" : 13.76666670,
		"longitude" : -89.68333330,
		"name" : "Tapalshucut"
	},
	{
		"id" : 2317415,
		"region_id" : 3220,
		"country_id" : 194,
		"latitude" : 13.76666670,
		"longitude" : -89.68333330,
		"name" : "Tapashucut"
	},
	{
		"id" : 2317433,
		"region_id" : 3220,
		"country_id" : 194,
		"latitude" : 13.71861110,
		"longitude" : -89.67944440,
		"name" : "Tecuma"
	},
	{
		"id" : 2317432,
		"region_id" : 3220,
		"country_id" : 194,
		"latitude" : 13.71861110,
		"longitude" : -89.67944440,
		"name" : "Tecumán"
	},
	{
		"id" : 2317464,
		"region_id" : 3220,
		"country_id" : 194,
		"latitude" : 13.78083330,
		"longitude" : -89.66277780,
		"name" : "Teshcal"
	},
	{
		"id" : 2317495,
		"region_id" : 3220,
		"country_id" : 194,
		"latitude" : 13.59777780,
		"longitude" : -89.73527780,
		"name" : "Tonalá"
	},
	{
		"id" : 2317496,
		"region_id" : 3220,
		"country_id" : 194,
		"latitude" : 13.60000000,
		"longitude" : -89.73333330,
		"name" : "Tonate"
	},
	{
		"id" : 2317508,
		"region_id" : 3220,
		"country_id" : 194,
		"latitude" : 13.71666670,
		"longitude" : -89.70000000,
		"name" : "Tres Ceibas"
	},
	{
		"id" : 2317518,
		"region_id" : 3220,
		"country_id" : 194,
		"latitude" : 13.79527780,
		"longitude" : -89.67638890,
		"name" : "Tunalmiles"
	},
	{
		"id" : 2317543,
		"region_id" : 3220,
		"country_id" : 194,
		"latitude" : 13.74055560,
		"longitude" : -89.80250000,
		"name" : "Valle Carrizal"
	},
	{
		"id" : 2317560,
		"region_id" : 3220,
		"country_id" : 194,
		"latitude" : 13.74055560,
		"longitude" : -89.80250000,
		"name" : "Valle El Carrizal"
	},
	{
		"id" : 2317580,
		"region_id" : 3220,
		"country_id" : 194,
		"latitude" : 13.60000000,
		"longitude" : -89.75000000,
		"name" : "Valle Jocotillo"
	},
	{
		"id" : 2317581,
		"region_id" : 3220,
		"country_id" : 194,
		"latitude" : 13.60000000,
		"longitude" : -89.75000000,
		"name" : "Valle La Aguja"
	},
	{
		"id" : 2317612,
		"region_id" : 3220,
		"country_id" : 194,
		"latitude" : 13.65000000,
		"longitude" : -89.81666670,
		"name" : "Valle Nuevo"
	},
	{
		"id" : 2317675,
		"region_id" : 3220,
		"country_id" : 194,
		"latitude" : 13.74472220,
		"longitude" : -89.67305560,
		"name" : "Yzalco"
	},
	{
		"id" : 2317702,
		"region_id" : 3220,
		"country_id" : 194,
		"latitude" : 13.70388890,
		"longitude" : -89.65694440,
		"name" : "Zuquiat"
	},
	{
		"id" : 2312926,
		"region_id" : 3221,
		"country_id" : 194,
		"latitude" : 13.75000000,
		"longitude" : -88.11666670,
		"name" : "Aceituno"
	},
	{
		"id" : 2312931,
		"region_id" : 3221,
		"country_id" : 194,
		"latitude" : 13.81666670,
		"longitude" : -88.05000000,
		"name" : "Agua Blanca"
	},
	{
		"id" : 2312948,
		"region_id" : 3221,
		"country_id" : 194,
		"latitude" : 13.88333330,
		"longitude" : -88.03333330,
		"name" : "Agua Fría"
	},
	{
		"id" : 2312963,
		"region_id" : 3221,
		"country_id" : 194,
		"latitude" : 13.76666670,
		"longitude" : -88.08333330,
		"name" : "Agua Zarca"
	},
	{
		"id" : 2313029,
		"region_id" : 3221,
		"country_id" : 194,
		"latitude" : 13.65416670,
		"longitude" : -87.99277780,
		"name" : "Animas"
	},
	{
		"id" : 2313047,
		"region_id" : 3221,
		"country_id" : 194,
		"latitude" : 13.91666670,
		"longitude" : -88.13333330,
		"name" : "Arambala"
	},
	{
		"id" : 2313075,
		"region_id" : 3221,
		"country_id" : 194,
		"latitude" : 13.88333330,
		"longitude" : -88.21666670,
		"name" : "Azacualpa"
	},
	{
		"id" : 2313098,
		"region_id" : 3221,
		"country_id" : 194,
		"latitude" : 13.60000000,
		"longitude" : -88.11666670,
		"name" : "Barrios"
	},
	{
		"id" : 2313130,
		"region_id" : 3221,
		"country_id" : 194,
		"latitude" : 13.90000000,
		"longitude" : -88.06666670,
		"name" : "Bramadero"
	},
	{
		"id" : 2313150,
		"region_id" : 3221,
		"country_id" : 194,
		"latitude" : 13.68333330,
		"longitude" : -88.05000000,
		"name" : "Cacahuatalejo"
	},
	{
		"id" : 2313151,
		"region_id" : 3221,
		"country_id" : 194,
		"latitude" : 13.76666670,
		"longitude" : -88.08333330,
		"name" : "Cacaopera"
	},
	{
		"id" : 2313154,
		"region_id" : 3221,
		"country_id" : 194,
		"latitude" : 13.81666670,
		"longitude" : -88.00000000,
		"name" : "Calavera"
	},
	{
		"id" : 2313156,
		"region_id" : 3221,
		"country_id" : 194,
		"latitude" : 13.63333330,
		"longitude" : -88.18333330,
		"name" : "Calera"
	},
	{
		"id" : 2313163,
		"region_id" : 3221,
		"country_id" : 194,
		"latitude" : 13.73333330,
		"longitude" : -87.96666670,
		"name" : "Calpules"
	},
	{
		"id" : 2313190,
		"region_id" : 3221,
		"country_id" : 194,
		"latitude" : 13.95000000,
		"longitude" : -88.18333330,
		"name" : "Caña Verde"
	},
	{
		"id" : 2313188,
		"region_id" : 3221,
		"country_id" : 194,
		"latitude" : 13.95000000,
		"longitude" : -88.18333330,
		"name" : "Cañaveral"
	},
	{
		"id" : 2313189,
		"region_id" : 3221,
		"country_id" : 194,
		"latitude" : 13.95000000,
		"longitude" : -88.18333330,
		"name" : "Cañaverales"
	},
	{
		"id" : 2313197,
		"region_id" : 3221,
		"country_id" : 194,
		"latitude" : 13.68333330,
		"longitude" : -88.03333330,
		"name" : "Candelaria"
	},
	{
		"id" : 2313204,
		"region_id" : 3221,
		"country_id" : 194,
		"latitude" : 13.65000000,
		"longitude" : -88.16666670,
		"name" : "Candelillas"
	},
	{
		"id" : 2313246,
		"region_id" : 3221,
		"country_id" : 194,
		"latitude" : 13.71666670,
		"longitude" : -88.08333330,
		"name" : "Cantón del Norte"
	},
	{
		"id" : 2313255,
		"region_id" : 3221,
		"country_id" : 194,
		"latitude" : 13.76666670,
		"longitude" : -87.86666670,
		"name" : "Cantón El Cedro"
	},
	{
		"id" : 2313282,
		"region_id" : 3221,
		"country_id" : 194,
		"latitude" : 13.73333330,
		"longitude" : -88.03333330,
		"name" : "Cantón Frutilla"
	},
	{
		"id" : 2313283,
		"region_id" : 3221,
		"country_id" : 194,
		"latitude" : 13.75000000,
		"longitude" : -88.10000000,
		"name" : "Cantón Gualindo"
	},
	{
		"id" : 2313291,
		"region_id" : 3221,
		"country_id" : 194,
		"latitude" : 13.78333330,
		"longitude" : -88.03333330,
		"name" : "Cantón la Estancia"
	},
	{
		"id" : 2313369,
		"region_id" : 3221,
		"country_id" : 194,
		"latitude" : 13.60000000,
		"longitude" : -88.03333330,
		"name" : "Cantón San Felipe"
	},
	{
		"id" : 2313416,
		"region_id" : 3221,
		"country_id" : 194,
		"latitude" : 13.66666670,
		"longitude" : -87.98333330,
		"name" : "Carrillo"
	},
	{
		"id" : 2313418,
		"region_id" : 3221,
		"country_id" : 194,
		"latitude" : 13.95000000,
		"longitude" : -88.08333330,
		"name" : "Carrizal"
	},
	{
		"id" : 2313420,
		"region_id" : 3221,
		"country_id" : 194,
		"latitude" : 13.96666670,
		"longitude" : -88.16666670,
		"name" : "Casa Blanca"
	},
	{
		"id" : 2313427,
		"region_id" : 3221,
		"country_id" : 194,
		"latitude" : 13.65000000,
		"longitude" : -87.98333330,
		"name" : "Casa Vieja"
	},
	{
		"id" : 2313426,
		"region_id" : 3221,
		"country_id" : 194,
		"latitude" : 13.65000000,
		"longitude" : -87.98333330,
		"name" : "Casas Viejas"
	},
	{
		"id" : 2313442,
		"region_id" : 3221,
		"country_id" : 194,
		"latitude" : 13.66666670,
		"longitude" : -87.98333330,
		"name" : "Caserío Carrillo"
	},
	{
		"id" : 2313523,
		"region_id" : 3221,
		"country_id" : 194,
		"latitude" : 13.65000000,
		"longitude" : -88.03333330,
		"name" : "Caserío Guachipilín"
	},
	{
		"id" : 2313591,
		"region_id" : 3221,
		"country_id" : 194,
		"latitude" : 13.68333330,
		"longitude" : -88.05000000,
		"name" : "Caserío Los Reyes"
	},
	{
		"id" : 2313669,
		"region_id" : 3221,
		"country_id" : 194,
		"latitude" : 13.76666670,
		"longitude" : -87.86666670,
		"name" : "Cedros"
	},
	{
		"id" : 2313680,
		"region_id" : 3221,
		"country_id" : 194,
		"latitude" : 13.90000000,
		"longitude" : -88.20000000,
		"name" : "Cerritos"
	},
	{
		"id" : 2313685,
		"region_id" : 3221,
		"country_id" : 194,
		"latitude" : 13.81666670,
		"longitude" : -88.15000000,
		"name" : "Cerro Coyol"
	},
	{
		"id" : 2313693,
		"region_id" : 3221,
		"country_id" : 194,
		"latitude" : 13.83333330,
		"longitude" : -88.11666670,
		"name" : "Cerro Pando"
	},
	{
		"id" : 2313714,
		"region_id" : 3221,
		"country_id" : 194,
		"latitude" : 13.70000000,
		"longitude" : -88.13333330,
		"name" : "Chaparral"
	},
	{
		"id" : 2313736,
		"region_id" : 3221,
		"country_id" : 194,
		"latitude" : 13.71666670,
		"longitude" : -88.11666670,
		"name" : "Chilanga"
	},
	{
		"id" : 2313871,
		"region_id" : 3221,
		"country_id" : 194,
		"latitude" : 13.81666670,
		"longitude" : -87.95000000,
		"name" : "Coralito"
	},
	{
		"id" : 2313874,
		"region_id" : 3221,
		"country_id" : 194,
		"latitude" : 13.81083330,
		"longitude" : -87.97138890,
		"name" : "Corinto"
	},
	{
		"id" : 2313882,
		"region_id" : 3221,
		"country_id" : 194,
		"latitude" : 13.81666670,
		"longitude" : -87.95000000,
		"name" : "Corralito"
	},
	{
		"id" : 2313909,
		"region_id" : 3221,
		"country_id" : 194,
		"latitude" : 13.91666670,
		"longitude" : -88.11666670,
		"name" : "Cumaro"
	},
	{
		"id" : 2313913,
		"region_id" : 3221,
		"country_id" : 194,
		"latitude" : 13.86222220,
		"longitude" : -87.98750000,
		"name" : "Cuquinca"
	},
	{
		"id" : 2313916,
		"region_id" : 3221,
		"country_id" : 194,
		"latitude" : 13.91666670,
		"longitude" : -88.15000000,
		"name" : "Cururo"
	},
	{
		"id" : 2313934,
		"region_id" : 3221,
		"country_id" : 194,
		"latitude" : 13.78333330,
		"longitude" : -88.13333330,
		"name" : "Delicias de Concepción"
	},
	{
		"id" : 2313939,
		"region_id" : 3221,
		"country_id" : 194,
		"latitude" : 13.60000000,
		"longitude" : -88.05000000,
		"name" : "Divisadero"
	},
	{
		"id" : 2313950,
		"region_id" : 3221,
		"country_id" : 194,
		"latitude" : 13.75000000,
		"longitude" : -88.11666670,
		"name" : "El Aceituno"
	},
	{
		"id" : 2313955,
		"region_id" : 3221,
		"country_id" : 194,
		"latitude" : 13.76666670,
		"longitude" : -88.06666670,
		"name" : "El Achiote"
	},
	{
		"id" : 2313959,
		"region_id" : 3221,
		"country_id" : 194,
		"latitude" : 13.76666670,
		"longitude" : -88.06666670,
		"name" : "El Achote"
	},
	{
		"id" : 2313961,
		"region_id" : 3221,
		"country_id" : 194,
		"latitude" : 14.01666670,
		"longitude" : -88.18333330,
		"name" : "El Aguacate"
	},
	{
		"id" : 2313993,
		"region_id" : 3221,
		"country_id" : 194,
		"latitude" : 13.66666670,
		"longitude" : -88.00000000,
		"name" : "El Apintal"
	},
	{
		"id" : 2314006,
		"region_id" : 3221,
		"country_id" : 194,
		"latitude" : 14.00000000,
		"longitude" : -88.10000000,
		"name" : "El Barrancón"
	},
	{
		"id" : 2314019,
		"region_id" : 3221,
		"country_id" : 194,
		"latitude" : 13.90000000,
		"longitude" : -88.06666670,
		"name" : "El Bramadero"
	},
	{
		"id" : 2314046,
		"region_id" : 3221,
		"country_id" : 194,
		"latitude" : 13.91666670,
		"longitude" : -88.08333330,
		"name" : "El Capulín"
	},
	{
		"id" : 2314057,
		"region_id" : 3221,
		"country_id" : 194,
		"latitude" : 13.68333330,
		"longitude" : -88.23333330,
		"name" : "El Carbón"
	},
	{
		"id" : 2314075,
		"region_id" : 3221,
		"country_id" : 194,
		"latitude" : 13.73333330,
		"longitude" : -88.01666670,
		"name" : "El Carrizal"
	},
	{
		"id" : 2314093,
		"region_id" : 3221,
		"country_id" : 194,
		"latitude" : 14.05000000,
		"longitude" : -88.11666670,
		"name" : "El Cedral"
	},
	{
		"id" : 2314095,
		"region_id" : 3221,
		"country_id" : 194,
		"latitude" : 13.76666670,
		"longitude" : -87.86666670,
		"name" : "El Cedro"
	},
	{
		"id" : 2314106,
		"region_id" : 3221,
		"country_id" : 194,
		"latitude" : 13.83333330,
		"longitude" : -88.25000000,
		"name" : "El Cerro"
	},
	{
		"id" : 2314117,
		"region_id" : 3221,
		"country_id" : 194,
		"latitude" : 13.70000000,
		"longitude" : -88.13333330,
		"name" : "El Chaparral"
	},
	{
		"id" : 2314157,
		"region_id" : 3221,
		"country_id" : 194,
		"latitude" : 13.71666670,
		"longitude" : -88.26666670,
		"name" : "El Cirigual"
	},
	{
		"id" : 2314209,
		"region_id" : 3221,
		"country_id" : 194,
		"latitude" : 13.73333330,
		"longitude" : -88.21666670,
		"name" : "El Cutal"
	},
	{
		"id" : 2314210,
		"region_id" : 3221,
		"country_id" : 194,
		"latitude" : 13.73333330,
		"longitude" : -88.21666670,
		"name" : "El Cuyal"
	},
	{
		"id" : 2314221,
		"region_id" : 3221,
		"country_id" : 194,
		"latitude" : 13.60000000,
		"longitude" : -88.05000000,
		"name" : "El Divisadero"
	},
	{
		"id" : 2314235,
		"region_id" : 3221,
		"country_id" : 194,
		"latitude" : 13.80000000,
		"longitude" : -87.95000000,
		"name" : "El Escorpión"
	},
	{
		"id" : 2314257,
		"region_id" : 3221,
		"country_id" : 194,
		"latitude" : 13.65000000,
		"longitude" : -88.00000000,
		"name" : "El Gigante"
	},
	{
		"id" : 2314264,
		"region_id" : 3221,
		"country_id" : 194,
		"latitude" : 13.80000000,
		"longitude" : -88.05000000,
		"name" : "El Guapinol"
	},
	{
		"id" : 2314266,
		"region_id" : 3221,
		"country_id" : 194,
		"latitude" : 14.03333330,
		"longitude" : -88.13333330,
		"name" : "El Guatalón"
	},
	{
		"id" : 2314290,
		"region_id" : 3221,
		"country_id" : 194,
		"latitude" : 13.86222220,
		"longitude" : -87.98750000,
		"name" : "El Hondable"
	},
	{
		"id" : 2314293,
		"region_id" : 3221,
		"country_id" : 194,
		"latitude" : 14.03333330,
		"longitude" : -88.13333330,
		"name" : "El Huatalón"
	},
	{
		"id" : 2314316,
		"region_id" : 3221,
		"country_id" : 194,
		"latitude" : 13.90000000,
		"longitude" : -88.21666670,
		"name" : "El Jícaro"
	},
	{
		"id" : 2314344,
		"region_id" : 3221,
		"country_id" : 194,
		"latitude" : 13.83333330,
		"longitude" : -88.08333330,
		"name" : "El Junquillo"
	},
	{
		"id" : 2314356,
		"region_id" : 3221,
		"country_id" : 194,
		"latitude" : 13.83333330,
		"longitude" : -88.03333330,
		"name" : "El León"
	},
	{
		"id" : 2314368,
		"region_id" : 3221,
		"country_id" : 194,
		"latitude" : 13.70000000,
		"longitude" : -88.16666670,
		"name" : "El Limón"
	},
	{
		"id" : 2314419,
		"region_id" : 3221,
		"country_id" : 194,
		"latitude" : 13.90000000,
		"longitude" : -88.11666670,
		"name" : "El Mozote"
	},
	{
		"id" : 2314425,
		"region_id" : 3221,
		"country_id" : 194,
		"latitude" : 13.78333330,
		"longitude" : -88.10000000,
		"name" : "El Nance"
	},
	{
		"id" : 2314443,
		"region_id" : 3221,
		"country_id" : 194,
		"latitude" : 13.71666670,
		"longitude" : -88.08333330,
		"name" : "El Norte"
	},
	{
		"id" : 2314481,
		"region_id" : 3221,
		"country_id" : 194,
		"latitude" : 14.03333330,
		"longitude" : -88.20000000,
		"name" : "El Paraíso"
	},
	{
		"id" : 2314490,
		"region_id" : 3221,
		"country_id" : 194,
		"latitude" : 13.73333330,
		"longitude" : -88.10000000,
		"name" : "El Pedernal"
	},
	{
		"id" : 2314496,
		"region_id" : 3221,
		"country_id" : 194,
		"latitude" : 13.70000000,
		"longitude" : -87.98333330,
		"name" : "El Peñón"
	},
	{
		"id" : 2314508,
		"region_id" : 3221,
		"country_id" : 194,
		"latitude" : 13.93333330,
		"longitude" : -88.25000000,
		"name" : "El Picacho"
	},
	{
		"id" : 2314560,
		"region_id" : 3221,
		"country_id" : 194,
		"latitude" : 13.88333330,
		"longitude" : -88.23333330,
		"name" : "El Progreso"
	},
	{
		"id" : 2314584,
		"region_id" : 3221,
		"country_id" : 194,
		"latitude" : 13.88333330,
		"longitude" : -88.13333330,
		"name" : "El Rincón"
	},
	{
		"id" : 2314597,
		"region_id" : 3221,
		"country_id" : 194,
		"latitude" : 13.68333330,
		"longitude" : -88.16666670,
		"name" : "El Rodeo"
	},
	{
		"id" : 2314608,
		"region_id" : 3221,
		"country_id" : 194,
		"latitude" : 13.56666670,
		"longitude" : -88.08333330,
		"name" : "El Rosario"
	},
	{
		"id" : 2314614,
		"region_id" : 3221,
		"country_id" : 194,
		"latitude" : 13.75000000,
		"longitude" : -88.00000000,
		"name" : "El Rotillo"
	},
	{
		"id" : 2314657,
		"region_id" : 3221,
		"country_id" : 194,
		"latitude" : 13.96666670,
		"longitude" : -88.13333330,
		"name" : "El Social"
	},
	{
		"id" : 2314673,
		"region_id" : 3221,
		"country_id" : 194,
		"latitude" : 13.73333330,
		"longitude" : -88.00000000,
		"name" : "El Tablón"
	},
	{
		"id" : 2314689,
		"region_id" : 3221,
		"country_id" : 194,
		"latitude" : 13.81666670,
		"longitude" : -88.03333330,
		"name" : "El Tambor"
	},
	{
		"id" : 2314714,
		"region_id" : 3221,
		"country_id" : 194,
		"latitude" : 13.91666670,
		"longitude" : -88.05000000,
		"name" : "El Tizate"
	},
	{
		"id" : 2314731,
		"region_id" : 3221,
		"country_id" : 194,
		"latitude" : 13.65000000,
		"longitude" : -88.08333330,
		"name" : "El Triunfo"
	},
	{
		"id" : 2314742,
		"region_id" : 3221,
		"country_id" : 194,
		"latitude" : 13.81666670,
		"longitude" : -88.25000000,
		"name" : "El Valle Grande"
	},
	{
		"id" : 2314747,
		"region_id" : 3221,
		"country_id" : 194,
		"latitude" : 13.73333330,
		"longitude" : -88.21666670,
		"name" : "El Volcán"
	},
	{
		"id" : 2314744,
		"region_id" : 3221,
		"country_id" : 194,
		"latitude" : 13.88333330,
		"longitude" : -88.16666670,
		"name" : "El Volcancillo"
	},
	{
		"id" : 2314762,
		"region_id" : 3221,
		"country_id" : 194,
		"latitude" : 13.86666670,
		"longitude" : -88.08333330,
		"name" : "El Zapotal"
	},
	{
		"id" : 2314821,
		"region_id" : 3221,
		"country_id" : 194,
		"latitude" : 13.78333330,
		"longitude" : -88.23333330,
		"name" : "Finca La Angostura"
	},
	{
		"id" : 2314847,
		"region_id" : 3221,
		"country_id" : 194,
		"latitude" : 13.61666670,
		"longitude" : -88.00000000,
		"name" : "Flamenco"
	},
	{
		"id" : 2314850,
		"region_id" : 3221,
		"country_id" : 194,
		"latitude" : 13.80000000,
		"longitude" : -88.08333330,
		"name" : "Flor del Muerto"
	},
	{
		"id" : 2314851,
		"region_id" : 3221,
		"country_id" : 194,
		"latitude" : 13.80000000,
		"longitude" : -88.08333330,
		"name" : "Flor Muerta"
	},
	{
		"id" : 2314852,
		"region_id" : 3221,
		"country_id" : 194,
		"latitude" : 13.73333330,
		"longitude" : -88.03333330,
		"name" : "Frutilla"
	},
	{
		"id" : 2314859,
		"region_id" : 3221,
		"country_id" : 194,
		"latitude" : 13.65000000,
		"longitude" : -88.00000000,
		"name" : "Gigante"
	},
	{
		"id" : 2314862,
		"region_id" : 3221,
		"country_id" : 194,
		"latitude" : 13.70000000,
		"longitude" : -88.10000000,
		"name" : "Gotera"
	},
	{
		"id" : 2314864,
		"region_id" : 3221,
		"country_id" : 194,
		"latitude" : 13.86666670,
		"longitude" : -88.11666670,
		"name" : "Guacamaya"
	},
	{
		"id" : 2314871,
		"region_id" : 3221,
		"country_id" : 194,
		"latitude" : 13.65000000,
		"longitude" : -88.03333330,
		"name" : "Guachipilín"
	},
	{
		"id" : 2314893,
		"region_id" : 3221,
		"country_id" : 194,
		"latitude" : 13.75000000,
		"longitude" : -88.08333330,
		"name" : "Gualindo"
	},
	{
		"id" : 2314891,
		"region_id" : 3221,
		"country_id" : 194,
		"latitude" : 13.75000000,
		"longitude" : -88.10000000,
		"name" : "Gualindo Abajo"
	},
	{
		"id" : 2314892,
		"region_id" : 3221,
		"country_id" : 194,
		"latitude" : 13.75000000,
		"longitude" : -88.08333330,
		"name" : "Gualindo Centro"
	},
	{
		"id" : 2314894,
		"region_id" : 3221,
		"country_id" : 194,
		"latitude" : 13.81666670,
		"longitude" : -88.21666670,
		"name" : "Gualococti"
	},
	{
		"id" : 2314905,
		"region_id" : 3221,
		"country_id" : 194,
		"latitude" : 13.80000000,
		"longitude" : -88.05000000,
		"name" : "Guapinol"
	},
	{
		"id" : 2314909,
		"region_id" : 3221,
		"country_id" : 194,
		"latitude" : 13.71666670,
		"longitude" : -88.18333330,
		"name" : "Guarumal"
	},
	{
		"id" : 2314914,
		"region_id" : 3221,
		"country_id" : 194,
		"latitude" : 13.66666670,
		"longitude" : -88.20000000,
		"name" : "Guatajiagua"
	},
	{
		"id" : 2314931,
		"region_id" : 3221,
		"country_id" : 194,
		"latitude" : 13.81666670,
		"longitude" : -88.05000000,
		"name" : "Guchipilín"
	},
	{
		"id" : 2314935,
		"region_id" : 3221,
		"country_id" : 194,
		"latitude" : 13.80000000,
		"longitude" : -88.16666670,
		"name" : "Güiligüiste"
	},
	{
		"id" : 2315129,
		"region_id" : 3221,
		"country_id" : 194,
		"latitude" : 13.63333330,
		"longitude" : -88.11666670,
		"name" : "Hacienda San Marcos"
	},
	{
		"id" : 2315168,
		"region_id" : 3221,
		"country_id" : 194,
		"latitude" : 13.70000000,
		"longitude" : -88.08333330,
		"name" : "Hacienda Vieja"
	},
	{
		"id" : 2315187,
		"region_id" : 3221,
		"country_id" : 194,
		"latitude" : 13.86222220,
		"longitude" : -87.98750000,
		"name" : "Hondable"
	},
	{
		"id" : 2315198,
		"region_id" : 3221,
		"country_id" : 194,
		"latitude" : 13.80000000,
		"longitude" : -88.16666670,
		"name" : "Huilihuiste"
	},
	{
		"id" : 2315256,
		"region_id" : 3221,
		"country_id" : 194,
		"latitude" : 13.90000000,
		"longitude" : -88.21666670,
		"name" : "Jícaro"
	},
	{
		"id" : 2315260,
		"region_id" : 3221,
		"country_id" : 194,
		"latitude" : 13.90000000,
		"longitude" : -88.05000000,
		"name" : "Joateca"
	},
	{
		"id" : 2315262,
		"region_id" : 3221,
		"country_id" : 194,
		"latitude" : 13.88333330,
		"longitude" : -88.13333330,
		"name" : "Jocoaitique"
	},
	{
		"id" : 2315266,
		"region_id" : 3221,
		"country_id" : 194,
		"latitude" : 13.61666670,
		"longitude" : -88.01666670,
		"name" : "Jocoro"
	},
	{
		"id" : 2315286,
		"region_id" : 3221,
		"country_id" : 194,
		"latitude" : 13.65000000,
		"longitude" : -88.15000000,
		"name" : "Joya de Monte Grande"
	},
	{
		"id" : 2315280,
		"region_id" : 3221,
		"country_id" : 194,
		"latitude" : 13.75000000,
		"longitude" : -88.20000000,
		"name" : "Joya del Matazano"
	},
	{
		"id" : 2315281,
		"region_id" : 3221,
		"country_id" : 194,
		"latitude" : 13.65000000,
		"longitude" : -88.15000000,
		"name" : "Joya del Monte Grande"
	},
	{
		"id" : 2315296,
		"region_id" : 3221,
		"country_id" : 194,
		"latitude" : 13.65000000,
		"longitude" : -88.15000000,
		"name" : "Joyas de Monte Grande"
	},
	{
		"id" : 2315307,
		"region_id" : 3221,
		"country_id" : 194,
		"latitude" : 13.83333330,
		"longitude" : -88.08333330,
		"name" : "Junquillo"
	},
	{
		"id" : 2315319,
		"region_id" : 3221,
		"country_id" : 194,
		"latitude" : 13.71666670,
		"longitude" : -88.16666670,
		"name" : "La Angostura"
	},
	{
		"id" : 2315324,
		"region_id" : 3221,
		"country_id" : 194,
		"latitude" : 13.78333330,
		"longitude" : -88.01666670,
		"name" : "La Arrinconada"
	},
	{
		"id" : 2315340,
		"region_id" : 3221,
		"country_id" : 194,
		"latitude" : 13.56666670,
		"longitude" : -88.11666670,
		"name" : "La Cabaña"
	},
	{
		"id" : 2315343,
		"region_id" : 3221,
		"country_id" : 194,
		"latitude" : 13.63333330,
		"longitude" : -87.98333330,
		"name" : "La Calavera"
	},
	{
		"id" : 2315345,
		"region_id" : 3221,
		"country_id" : 194,
		"latitude" : 13.63333330,
		"longitude" : -88.18333330,
		"name" : "La Calera"
	},
	{
		"id" : 2315350,
		"region_id" : 3221,
		"country_id" : 194,
		"latitude" : 13.56666670,
		"longitude" : -88.11666670,
		"name" : "La Cañada"
	},
	{
		"id" : 2315353,
		"region_id" : 3221,
		"country_id" : 194,
		"latitude" : 13.65000000,
		"longitude" : -88.16666670,
		"name" : "La Candelilla"
	},
	{
		"id" : 2315417,
		"region_id" : 3221,
		"country_id" : 194,
		"latitude" : 13.80000000,
		"longitude" : -88.11666670,
		"name" : "La Cuchilla"
	},
	{
		"id" : 2315430,
		"region_id" : 3221,
		"country_id" : 194,
		"latitude" : 13.86666670,
		"longitude" : -88.00000000,
		"name" : "La Ermita"
	},
	{
		"id" : 2315440,
		"region_id" : 3221,
		"country_id" : 194,
		"latitude" : 13.78333330,
		"longitude" : -88.03333330,
		"name" : "La Estancia"
	},
	{
		"id" : 2315451,
		"region_id" : 3221,
		"country_id" : 194,
		"latitude" : 13.73333330,
		"longitude" : -88.03333330,
		"name" : "La Frutilla"
	},
	{
		"id" : 2315454,
		"region_id" : 3221,
		"country_id" : 194,
		"latitude" : 14.03333330,
		"longitude" : -88.08333330,
		"name" : "La Galera"
	},
	{
		"id" : 2315485,
		"region_id" : 3221,
		"country_id" : 194,
		"latitude" : 13.73333330,
		"longitude" : -88.21666670,
		"name" : "La Isleta"
	},
	{
		"id" : 2315488,
		"region_id" : 3221,
		"country_id" : 194,
		"latitude" : 13.60000000,
		"longitude" : -88.10000000,
		"name" : "La Jagua"
	},
	{
		"id" : 2315498,
		"region_id" : 3221,
		"country_id" : 194,
		"latitude" : 13.70000000,
		"longitude" : -87.96666670,
		"name" : "La Joya"
	},
	{
		"id" : 2315509,
		"region_id" : 3221,
		"country_id" : 194,
		"latitude" : 13.71666670,
		"longitude" : -88.00000000,
		"name" : "La Labranza"
	},
	{
		"id" : 2315512,
		"region_id" : 3221,
		"country_id" : 194,
		"latitude" : 13.86666670,
		"longitude" : -87.95000000,
		"name" : "La Laguna"
	},
	{
		"id" : 2315530,
		"region_id" : 3221,
		"country_id" : 194,
		"latitude" : 13.83333330,
		"longitude" : -88.16666670,
		"name" : "La Loma"
	},
	{
		"id" : 2315540,
		"region_id" : 3221,
		"country_id" : 194,
		"latitude" : 13.73333330,
		"longitude" : -88.05000000,
		"name" : "La Manzanilla"
	},
	{
		"id" : 2315547,
		"region_id" : 3221,
		"country_id" : 194,
		"latitude" : 13.81666670,
		"longitude" : -88.16666670,
		"name" : "La Montaña"
	},
	{
		"id" : 2315578,
		"region_id" : 3221,
		"country_id" : 194,
		"latitude" : 13.73333330,
		"longitude" : -88.03333330,
		"name" : "La Peñita"
	},
	{
		"id" : 2315587,
		"region_id" : 3221,
		"country_id" : 194,
		"latitude" : 13.66666670,
		"longitude" : -88.13333330,
		"name" : "La Pitahaya"
	},
	{
		"id" : 2315621,
		"region_id" : 3221,
		"country_id" : 194,
		"latitude" : 13.78333330,
		"longitude" : -88.01666670,
		"name" : "La Rinconada"
	},
	{
		"id" : 2315825,
		"region_id" : 3221,
		"country_id" : 194,
		"latitude" : 13.91666670,
		"longitude" : -88.25000000,
		"name" : "La Tijereta"
	},
	{
		"id" : 2315828,
		"region_id" : 3221,
		"country_id" : 194,
		"latitude" : 13.86666670,
		"longitude" : -87.98333330,
		"name" : "La Tortuga"
	},
	{
		"id" : 2315337,
		"region_id" : 3221,
		"country_id" : 194,
		"latitude" : 13.71666670,
		"longitude" : -88.00000000,
		"name" : "Labranza"
	},
	{
		"id" : 2315467,
		"region_id" : 3221,
		"country_id" : 194,
		"latitude" : 13.86666670,
		"longitude" : -87.95000000,
		"name" : "Laguna"
	},
	{
		"id" : 2315492,
		"region_id" : 3221,
		"country_id" : 194,
		"latitude" : 13.73333330,
		"longitude" : -88.13333330,
		"name" : "Lajitas"
	},
	{
		"id" : 2315633,
		"region_id" : 3221,
		"country_id" : 194,
		"latitude" : 13.65416670,
		"longitude" : -87.99277780,
		"name" : "Las Ánimas"
	},
	{
		"id" : 2315645,
		"region_id" : 3221,
		"country_id" : 194,
		"latitude" : 13.63333330,
		"longitude" : -87.98333330,
		"name" : "Las Calavera"
	},
	{
		"id" : 2315646,
		"region_id" : 3221,
		"country_id" : 194,
		"latitude" : 13.63333330,
		"longitude" : -87.98333330,
		"name" : "Las Calaveras"
	},
	{
		"id" : 2315650,
		"region_id" : 3221,
		"country_id" : 194,
		"latitude" : 13.90000000,
		"longitude" : -88.05000000,
		"name" : "Las Cañas"
	},
	{
		"id" : 2315669,
		"region_id" : 3221,
		"country_id" : 194,
		"latitude" : 13.56666670,
		"longitude" : -88.08333330,
		"name" : "Las Conchas"
	},
	{
		"id" : 2315674,
		"region_id" : 3221,
		"country_id" : 194,
		"latitude" : 13.71666670,
		"longitude" : -88.16666670,
		"name" : "Las Cruces"
	},
	{
		"id" : 2315716,
		"region_id" : 3221,
		"country_id" : 194,
		"latitude" : 13.98333330,
		"longitude" : -88.10000000,
		"name" : "Las Joyas"
	},
	{
		"id" : 2315737,
		"region_id" : 3221,
		"country_id" : 194,
		"latitude" : 13.62472220,
		"longitude" : -87.98722220,
		"name" : "Las Marías"
	},
	{
		"id" : 2315748,
		"region_id" : 3221,
		"country_id" : 194,
		"latitude" : 13.90000000,
		"longitude" : -88.16666670,
		"name" : "Las Mesas"
	},
	{
		"id" : 2315767,
		"region_id" : 3221,
		"country_id" : 194,
		"latitude" : 13.73333330,
		"longitude" : -88.03333330,
		"name" : "Las Peñitas"
	},
	{
		"id" : 2315775,
		"region_id" : 3221,
		"country_id" : 194,
		"latitude" : 13.93333330,
		"longitude" : -88.10000000,
		"name" : "Las Pilas"
	},
	{
		"id" : 2315783,
		"region_id" : 3221,
		"country_id" : 194,
		"latitude" : 13.78333330,
		"longitude" : -88.23333330,
		"name" : "Las Quebradas"
	},
	{
		"id" : 2315785,
		"region_id" : 3221,
		"country_id" : 194,
		"latitude" : 13.90000000,
		"longitude" : -88.18333330,
		"name" : "Las Raices"
	},
	{
		"id" : 2315799,
		"region_id" : 3221,
		"country_id" : 194,
		"latitude" : 13.91666670,
		"longitude" : -88.25000000,
		"name" : "Las Tijeretas"
	},
	{
		"id" : 2315809,
		"region_id" : 3221,
		"country_id" : 194,
		"latitude" : 14.00000000,
		"longitude" : -88.18333330,
		"name" : "Las Trojas"
	},
	{
		"id" : 2315857,
		"region_id" : 3221,
		"country_id" : 194,
		"latitude" : 13.81666670,
		"longitude" : -88.15000000,
		"name" : "Llano Alegre"
	},
	{
		"id" : 2315872,
		"region_id" : 3221,
		"country_id" : 194,
		"latitude" : 13.58333330,
		"longitude" : -88.06666670,
		"name" : "Llano de Santiago"
	},
	{
		"id" : 2315870,
		"region_id" : 3221,
		"country_id" : 194,
		"latitude" : 13.96666670,
		"longitude" : -88.13333330,
		"name" : "Llano del Muerto"
	},
	{
		"id" : 2315883,
		"region_id" : 3221,
		"country_id" : 194,
		"latitude" : 13.81666670,
		"longitude" : -88.06666670,
		"name" : "Llano La Ceiba"
	},
	{
		"id" : 2315885,
		"region_id" : 3221,
		"country_id" : 194,
		"latitude" : 13.81666670,
		"longitude" : -88.06666670,
		"name" : "Llano Largo"
	},
	{
		"id" : 2315889,
		"region_id" : 3221,
		"country_id" : 194,
		"latitude" : 13.86666670,
		"longitude" : -88.00000000,
		"name" : "Llano Verde"
	},
	{
		"id" : 2315891,
		"region_id" : 3221,
		"country_id" : 194,
		"latitude" : 13.73333330,
		"longitude" : -88.08333330,
		"name" : "Lolotiquillo"
	},
	{
		"id" : 2315918,
		"region_id" : 3221,
		"country_id" : 194,
		"latitude" : 13.60000000,
		"longitude" : -88.06666670,
		"name" : "Loma Larga"
	},
	{
		"id" : 2315930,
		"region_id" : 3221,
		"country_id" : 194,
		"latitude" : 13.70000000,
		"longitude" : -88.25000000,
		"name" : "Los Abelines"
	},
	{
		"id" : 2315941,
		"region_id" : 3221,
		"country_id" : 194,
		"latitude" : 14.00000000,
		"longitude" : -88.20000000,
		"name" : "Los Amates"
	},
	{
		"id" : 2315984,
		"region_id" : 3221,
		"country_id" : 194,
		"latitude" : 13.61666670,
		"longitude" : -88.10000000,
		"name" : "Los Encuentros"
	},
	{
		"id" : 2315993,
		"region_id" : 3221,
		"country_id" : 194,
		"latitude" : 13.68333330,
		"longitude" : -88.16666670,
		"name" : "Los Flores"
	},
	{
		"id" : 2315994,
		"region_id" : 3221,
		"country_id" : 194,
		"latitude" : 13.88333330,
		"longitude" : -88.11666670,
		"name" : "Los González"
	},
	{
		"id" : 2316041,
		"region_id" : 3221,
		"country_id" : 194,
		"latitude" : 13.73333330,
		"longitude" : -88.15000000,
		"name" : "Los Marquez"
	},
	{
		"id" : 2316044,
		"region_id" : 3221,
		"country_id" : 194,
		"latitude" : 13.75000000,
		"longitude" : -88.11666670,
		"name" : "Los Martínez"
	},
	{
		"id" : 2316100,
		"region_id" : 3221,
		"country_id" : 194,
		"latitude" : 13.93333330,
		"longitude" : -88.16666670,
		"name" : "Los Quebrados"
	},
	{
		"id" : 2316102,
		"region_id" : 3221,
		"country_id" : 194,
		"latitude" : 13.91666670,
		"longitude" : -88.15000000,
		"name" : "Los Ramírez"
	},
	{
		"id" : 2316110,
		"region_id" : 3221,
		"country_id" : 194,
		"latitude" : 13.68333330,
		"longitude" : -88.05000000,
		"name" : "Los Reyes"
	},
	{
		"id" : 2316140,
		"region_id" : 3221,
		"country_id" : 194,
		"latitude" : 13.76666670,
		"longitude" : -88.16666670,
		"name" : "Los Ventura"
	},
	{
		"id" : 2316154,
		"region_id" : 3221,
		"country_id" : 194,
		"latitude" : 13.68333330,
		"longitude" : -88.20000000,
		"name" : "Maiguera"
	},
	{
		"id" : 2316165,
		"region_id" : 3221,
		"country_id" : 194,
		"latitude" : 13.73333330,
		"longitude" : -88.05000000,
		"name" : "Manzanilla"
	},
	{
		"id" : 2316166,
		"region_id" : 3221,
		"country_id" : 194,
		"latitude" : 13.73333330,
		"longitude" : -88.05000000,
		"name" : "Manzanillas"
	},
	{
		"id" : 2316173,
		"region_id" : 3221,
		"country_id" : 194,
		"latitude" : 13.91666670,
		"longitude" : -88.08333330,
		"name" : "Masala"
	},
	{
		"id" : 2316179,
		"region_id" : 3221,
		"country_id" : 194,
		"latitude" : 13.78333330,
		"longitude" : -87.95000000,
		"name" : "Matapalo"
	},
	{
		"id" : 2316189,
		"region_id" : 3221,
		"country_id" : 194,
		"latitude" : 13.85000000,
		"longitude" : -88.15000000,
		"name" : "Meanguera"
	},
	{
		"id" : 2316210,
		"region_id" : 3221,
		"country_id" : 194,
		"latitude" : 13.60000000,
		"longitude" : -88.11666670,
		"name" : "Mineral Barrios"
	},
	{
		"id" : 2316211,
		"region_id" : 3221,
		"country_id" : 194,
		"latitude" : 13.60000000,
		"longitude" : -88.05000000,
		"name" : "Mineral Divisadero"
	},
	{
		"id" : 2316212,
		"region_id" : 3221,
		"country_id" : 194,
		"latitude" : 13.60000000,
		"longitude" : -88.05000000,
		"name" : "Mineral el Divisadero"
	},
	{
		"id" : 2316214,
		"region_id" : 3221,
		"country_id" : 194,
		"latitude" : 13.61666670,
		"longitude" : -88.10000000,
		"name" : "Mineral Los Encuentros"
	},
	{
		"id" : 2316215,
		"region_id" : 3221,
		"country_id" : 194,
		"latitude" : 13.58333330,
		"longitude" : -88.06666670,
		"name" : "Mineral Montecristo"
	},
	{
		"id" : 2316260,
		"region_id" : 3221,
		"country_id" : 194,
		"latitude" : 13.68333330,
		"longitude" : -87.98333330,
		"name" : "Monte Mayor"
	},
	{
		"id" : 2316253,
		"region_id" : 3221,
		"country_id" : 194,
		"latitude" : 13.58333330,
		"longitude" : -88.06666670,
		"name" : "Montecristo"
	},
	{
		"id" : 2316276,
		"region_id" : 3221,
		"country_id" : 194,
		"latitude" : 13.90000000,
		"longitude" : -88.11666670,
		"name" : "Mozote"
	},
	{
		"id" : 2316277,
		"region_id" : 3221,
		"country_id" : 194,
		"latitude" : 13.96666670,
		"longitude" : -88.13333330,
		"name" : "Muerto"
	},
	{
		"id" : 2316286,
		"region_id" : 3221,
		"country_id" : 194,
		"latitude" : 14.05000000,
		"longitude" : -88.15000000,
		"name" : "Nahuaterique"
	},
	{
		"id" : 2316312,
		"region_id" : 3221,
		"country_id" : 194,
		"latitude" : 13.58333330,
		"longitude" : -88.13333330,
		"name" : "Nombre de Jesús"
	},
	{
		"id" : 2316345,
		"region_id" : 3221,
		"country_id" : 194,
		"latitude" : 13.86666670,
		"longitude" : -88.05000000,
		"name" : "Ocote Seco"
	},
	{
		"id" : 2316347,
		"region_id" : 3221,
		"country_id" : 194,
		"latitude" : 13.75000000,
		"longitude" : -88.06666670,
		"name" : "Ocotillo"
	},
	{
		"id" : 2316355,
		"region_id" : 3221,
		"country_id" : 194,
		"latitude" : 13.85000000,
		"longitude" : -88.18333330,
		"name" : "Ojo de Agua"
	},
	{
		"id" : 2316362,
		"region_id" : 3221,
		"country_id" : 194,
		"latitude" : 13.85000000,
		"longitude" : -88.18333330,
		"name" : "Ojos de Agua"
	},
	{
		"id" : 2316376,
		"region_id" : 3221,
		"country_id" : 194,
		"latitude" : 13.80000000,
		"longitude" : -88.15000000,
		"name" : "Osicala"
	},
	{
		"id" : 2316416,
		"region_id" : 3221,
		"country_id" : 194,
		"latitude" : 14.03333330,
		"longitude" : -88.20000000,
		"name" : "Paraíso"
	},
	{
		"id" : 2316432,
		"region_id" : 3221,
		"country_id" : 194,
		"latitude" : 13.88333330,
		"longitude" : -88.06666670,
		"name" : "Paturla"
	},
	{
		"id" : 2316434,
		"region_id" : 3221,
		"country_id" : 194,
		"latitude" : 13.73333330,
		"longitude" : -88.10000000,
		"name" : "Pedernal"
	},
	{
		"id" : 2316436,
		"region_id" : 3221,
		"country_id" : 194,
		"latitude" : 13.80000000,
		"longitude" : -88.18333330,
		"name" : "Peña Blanca"
	},
	{
		"id" : 2316441,
		"region_id" : 3221,
		"country_id" : 194,
		"latitude" : 13.70000000,
		"longitude" : -87.98333330,
		"name" : "Peñón"
	},
	{
		"id" : 2316447,
		"region_id" : 3221,
		"country_id" : 194,
		"latitude" : 13.95000000,
		"longitude" : -88.16666670,
		"name" : "Perquín"
	},
	{
		"id" : 2316466,
		"region_id" : 3221,
		"country_id" : 194,
		"latitude" : 13.68333330,
		"longitude" : -87.98333330,
		"name" : "Piedra Parada"
	},
	{
		"id" : 2316482,
		"region_id" : 3221,
		"country_id" : 194,
		"latitude" : 13.73333330,
		"longitude" : -88.03333330,
		"name" : "Piñitas"
	},
	{
		"id" : 2316487,
		"region_id" : 3221,
		"country_id" : 194,
		"latitude" : 13.66666670,
		"longitude" : -88.13333330,
		"name" : "Pitahaya"
	},
	{
		"id" : 2316495,
		"region_id" : 3221,
		"country_id" : 194,
		"latitude" : 13.68333330,
		"longitude" : -88.23333330,
		"name" : "Plan del Carbón"
	},
	{
		"id" : 2316496,
		"region_id" : 3221,
		"country_id" : 194,
		"latitude" : 13.71666670,
		"longitude" : -88.05000000,
		"name" : "Plan del Higo"
	},
	{
		"id" : 2316527,
		"region_id" : 3221,
		"country_id" : 194,
		"latitude" : 13.71666670,
		"longitude" : -88.13333330,
		"name" : "Portillo Blanco"
	},
	{
		"id" : 2316533,
		"region_id" : 3221,
		"country_id" : 194,
		"latitude" : 13.66666670,
		"longitude" : -87.98333330,
		"name" : "Portillo Los Carrillo"
	},
	{
		"id" : 2316554,
		"region_id" : 3221,
		"country_id" : 194,
		"latitude" : 13.81666670,
		"longitude" : -88.21666670,
		"name" : "Potrero Adentro"
	},
	{
		"id" : 2316577,
		"region_id" : 3221,
		"country_id" : 194,
		"latitude" : 13.81666670,
		"longitude" : -88.15000000,
		"name" : "Pueblo Viejo"
	},
	{
		"id" : 2316623,
		"region_id" : 3221,
		"country_id" : 194,
		"latitude" : 13.90000000,
		"longitude" : -88.18333330,
		"name" : "Raíces"
	},
	{
		"id" : 2316631,
		"region_id" : 3221,
		"country_id" : 194,
		"latitude" : 13.78333330,
		"longitude" : -88.01666670,
		"name" : "Rinconada"
	},
	{
		"id" : 2316653,
		"region_id" : 3221,
		"country_id" : 194,
		"latitude" : 13.75000000,
		"longitude" : -88.00000000,
		"name" : "Ropilla"
	},
	{
		"id" : 2316672,
		"region_id" : 3221,
		"country_id" : 194,
		"latitude" : 14.05000000,
		"longitude" : -88.08333330,
		"name" : "Sabanetas"
	},
	{
		"id" : 2316700,
		"region_id" : 3221,
		"country_id" : 194,
		"latitude" : 13.90000000,
		"longitude" : -88.06666670,
		"name" : "San Agustín"
	},
	{
		"id" : 2316750,
		"region_id" : 3221,
		"country_id" : 194,
		"latitude" : 13.75000000,
		"longitude" : -88.11666670,
		"name" : "San Antonio"
	},
	{
		"id" : 2316764,
		"region_id" : 3221,
		"country_id" : 194,
		"latitude" : 13.61666670,
		"longitude" : -88.20000000,
		"name" : "San Bartolo"
	},
	{
		"id" : 2316781,
		"region_id" : 3221,
		"country_id" : 194,
		"latitude" : 13.65000000,
		"longitude" : -88.10000000,
		"name" : "San Carlos"
	},
	{
		"id" : 2316798,
		"region_id" : 3221,
		"country_id" : 194,
		"latitude" : 13.65000000,
		"longitude" : -88.13333330,
		"name" : "San Diego"
	},
	{
		"id" : 2316816,
		"region_id" : 3221,
		"country_id" : 194,
		"latitude" : 13.60000000,
		"longitude" : -88.03333330,
		"name" : "San Felipe"
	},
	{
		"id" : 2316822,
		"region_id" : 3221,
		"country_id" : 194,
		"latitude" : 13.96666670,
		"longitude" : -88.20000000,
		"name" : "San Fernando"
	},
	{
		"id" : 2316850,
		"region_id" : 3221,
		"country_id" : 194,
		"latitude" : 13.70000000,
		"longitude" : -88.10000000,
		"name" : "San Francisco"
	},
	{
		"id" : 2316835,
		"region_id" : 3221,
		"country_id" : 194,
		"latitude" : 13.70000000,
		"longitude" : -88.10000000,
		"name" : "San Francisco Gotera"
	},
	{
		"id" : 2316855,
		"region_id" : 3221,
		"country_id" : 194,
		"latitude" : 13.66666670,
		"longitude" : -88.13333330,
		"name" : "San Francisquito"
	},
	{
		"id" : 2316872,
		"region_id" : 3221,
		"country_id" : 194,
		"latitude" : 13.85000000,
		"longitude" : -88.23333330,
		"name" : "San Isidro"
	},
	{
		"id" : 2316891,
		"region_id" : 3221,
		"country_id" : 194,
		"latitude" : 13.88333330,
		"longitude" : -88.21666670,
		"name" : "San Joaquín"
	},
	{
		"id" : 2316955,
		"region_id" : 3221,
		"country_id" : 194,
		"latitude" : 13.63333330,
		"longitude" : -88.00000000,
		"name" : "San José"
	},
	{
		"id" : 2317000,
		"region_id" : 3221,
		"country_id" : 194,
		"latitude" : 13.56666670,
		"longitude" : -88.03333330,
		"name" : "San Juan"
	},
	{
		"id" : 2316974,
		"region_id" : 3221,
		"country_id" : 194,
		"latitude" : 13.63333330,
		"longitude" : -88.16666670,
		"name" : "San Juan de la Cruz"
	},
	{
		"id" : 2317021,
		"region_id" : 3221,
		"country_id" : 194,
		"latitude" : 13.81666670,
		"longitude" : -88.20000000,
		"name" : "San Lucas"
	},
	{
		"id" : 2317044,
		"region_id" : 3221,
		"country_id" : 194,
		"latitude" : 13.63333330,
		"longitude" : -88.11666670,
		"name" : "San Marcos"
	},
	{
		"id" : 2317097,
		"region_id" : 3221,
		"country_id" : 194,
		"latitude" : 13.60000000,
		"longitude" : -88.10000000,
		"name" : "San Pedro"
	},
	{
		"id" : 2317148,
		"region_id" : 3221,
		"country_id" : 194,
		"latitude" : 13.83333330,
		"longitude" : -88.23333330,
		"name" : "San Simón"
	},
	{
		"id" : 2317154,
		"region_id" : 3221,
		"country_id" : 194,
		"latitude" : 13.55000000,
		"longitude" : -88.10000000,
		"name" : "Santa Anita"
	},
	{
		"id" : 2317260,
		"region_id" : 3221,
		"country_id" : 194,
		"latitude" : 13.58333330,
		"longitude" : -88.06666670,
		"name" : "Santiago"
	},
	{
		"id" : 2317282,
		"region_id" : 3221,
		"country_id" : 194,
		"latitude" : 13.66666670,
		"longitude" : -88.16666670,
		"name" : "Sensembra"
	},
	{
		"id" : 2317285,
		"region_id" : 3221,
		"country_id" : 194,
		"latitude" : 13.66666670,
		"longitude" : -88.16666670,
		"name" : "Sesembra"
	},
	{
		"id" : 2317292,
		"region_id" : 3221,
		"country_id" : 194,
		"latitude" : 13.91666670,
		"longitude" : -88.26666670,
		"name" : "Sicagüite"
	},
	{
		"id" : 2317295,
		"region_id" : 3221,
		"country_id" : 194,
		"latitude" : 13.91666670,
		"longitude" : -88.26666670,
		"name" : "Sicahuite"
	},
	{
		"id" : 2317314,
		"region_id" : 3221,
		"country_id" : 194,
		"latitude" : 14.01666670,
		"longitude" : -88.18333330,
		"name" : "Sitio El Aguacate"
	},
	{
		"id" : 2317317,
		"region_id" : 3221,
		"country_id" : 194,
		"latitude" : 14.03333330,
		"longitude" : -88.20000000,
		"name" : "Sitio El Paraíso"
	},
	{
		"id" : 2317327,
		"region_id" : 3221,
		"country_id" : 194,
		"latitude" : 13.66666670,
		"longitude" : -88.00000000,
		"name" : "Sitio Marriburria"
	},
	{
		"id" : 2317328,
		"region_id" : 3221,
		"country_id" : 194,
		"latitude" : 13.78333330,
		"longitude" : -88.23333330,
		"name" : "Sitio Plan de San Antonio"
	},
	{
		"id" : 2317337,
		"region_id" : 3221,
		"country_id" : 194,
		"latitude" : 13.70000000,
		"longitude" : -88.01666670,
		"name" : "Sociedad"
	},
	{
		"id" : 2317341,
		"region_id" : 3221,
		"country_id" : 194,
		"latitude" : 13.86666670,
		"longitude" : -88.16666670,
		"name" : "Soledad"
	},
	{
		"id" : 2317363,
		"region_id" : 3221,
		"country_id" : 194,
		"latitude" : 13.76666670,
		"longitude" : -88.08333330,
		"name" : "Sunsulaca"
	},
	{
		"id" : 2317388,
		"region_id" : 3221,
		"country_id" : 194,
		"latitude" : 13.96666670,
		"longitude" : -88.08333330,
		"name" : "Talchiga"
	},
	{
		"id" : 2317470,
		"region_id" : 3221,
		"country_id" : 194,
		"latitude" : 13.76666670,
		"longitude" : -88.05000000,
		"name" : "Tierra Blanca"
	},
	{
		"id" : 2317476,
		"region_id" : 3221,
		"country_id" : 194,
		"latitude" : 13.91666670,
		"longitude" : -88.11666670,
		"name" : "Tierra Colorada"
	},
	{
		"id" : 2317483,
		"region_id" : 3221,
		"country_id" : 194,
		"latitude" : 13.91666670,
		"longitude" : -88.25000000,
		"name" : "Tijeretas"
	},
	{
		"id" : 2317490,
		"region_id" : 3221,
		"country_id" : 194,
		"latitude" : 13.91666670,
		"longitude" : -88.05000000,
		"name" : "Tizate"
	},
	{
		"id" : 2317498,
		"region_id" : 3221,
		"country_id" : 194,
		"latitude" : 13.91666670,
		"longitude" : -88.23333330,
		"name" : "Torola"
	},
	{
		"id" : 2317499,
		"region_id" : 3221,
		"country_id" : 194,
		"latitude" : 13.93333330,
		"longitude" : -88.21666670,
		"name" : "Tortolico"
	},
	{
		"id" : 2317500,
		"region_id" : 3221,
		"country_id" : 194,
		"latitude" : 13.93333330,
		"longitude" : -88.21666670,
		"name" : "Tortolito"
	},
	{
		"id" : 2317501,
		"region_id" : 3221,
		"country_id" : 194,
		"latitude" : 13.86666670,
		"longitude" : -87.98333330,
		"name" : "Tortuga"
	},
	{
		"id" : 2317502,
		"region_id" : 3221,
		"country_id" : 194,
		"latitude" : 13.86666670,
		"longitude" : -87.98333330,
		"name" : "Tortugo"
	},
	{
		"id" : 2317504,
		"region_id" : 3221,
		"country_id" : 194,
		"latitude" : 13.91666670,
		"longitude" : -88.23333330,
		"name" : "Towla"
	},
	{
		"id" : 2317566,
		"region_id" : 3221,
		"country_id" : 194,
		"latitude" : 13.85000000,
		"longitude" : -88.06666670,
		"name" : "Valle El Limón"
	},
	{
		"id" : 2317573,
		"region_id" : 3221,
		"country_id" : 194,
		"latitude" : 13.81666670,
		"longitude" : -88.03333330,
		"name" : "Valle El Tambor"
	},
	{
		"id" : 2317576,
		"region_id" : 3221,
		"country_id" : 194,
		"latitude" : 13.81666670,
		"longitude" : -88.25000000,
		"name" : "Valle Grande"
	},
	{
		"id" : 2317608,
		"region_id" : 3221,
		"country_id" : 194,
		"latitude" : 13.63333330,
		"longitude" : -88.06666670,
		"name" : "Valle Nuevo"
	},
	{
		"id" : 2317625,
		"region_id" : 3221,
		"country_id" : 194,
		"latitude" : 13.81666670,
		"longitude" : -88.20000000,
		"name" : "Valle San Lucas"
	},
	{
		"id" : 2317636,
		"region_id" : 3221,
		"country_id" : 194,
		"latitude" : 13.76666670,
		"longitude" : -88.01666670,
		"name" : "Varilla Negra"
	},
	{
		"id" : 2317643,
		"region_id" : 3221,
		"country_id" : 194,
		"latitude" : 13.71666670,
		"longitude" : -88.15000000,
		"name" : "Veracruz"
	},
	{
		"id" : 2317654,
		"region_id" : 3221,
		"country_id" : 194,
		"latitude" : 13.86666670,
		"longitude" : -88.21666670,
		"name" : "Villa El Rosario"
	},
	{
		"id" : 2317656,
		"region_id" : 3221,
		"country_id" : 194,
		"latitude" : 13.61666670,
		"longitude" : -88.05000000,
		"name" : "Villa Modelo"
	},
	{
		"id" : 2317657,
		"region_id" : 3221,
		"country_id" : 194,
		"latitude" : 13.86666670,
		"longitude" : -88.21666670,
		"name" : "Villa Rosario"
	},
	{
		"id" : 2317662,
		"region_id" : 3221,
		"country_id" : 194,
		"latitude" : 13.88333330,
		"longitude" : -88.16666670,
		"name" : "Volcancillo"
	},
	{
		"id" : 2317666,
		"region_id" : 3221,
		"country_id" : 194,
		"latitude" : 13.66666670,
		"longitude" : -88.16666670,
		"name" : "Yamabal"
	},
	{
		"id" : 2317667,
		"region_id" : 3221,
		"country_id" : 194,
		"latitude" : 13.80000000,
		"longitude" : -88.10000000,
		"name" : "Yancolo"
	},
	{
		"id" : 2317670,
		"region_id" : 3221,
		"country_id" : 194,
		"latitude" : 13.76666670,
		"longitude" : -88.15000000,
		"name" : "Yoloaiquín"
	},
	{
		"id" : 2312927,
		"region_id" : 3222,
		"country_id" : 194,
		"latitude" : 13.48333330,
		"longitude" : -88.68333330,
		"name" : "Aceituno"
	},
	{
		"id" : 2312928,
		"region_id" : 3222,
		"country_id" : 194,
		"latitude" : 13.56666670,
		"longitude" : -88.71666670,
		"name" : "Achichilquito"
	},
	{
		"id" : 2312950,
		"region_id" : 3222,
		"country_id" : 194,
		"latitude" : 13.41666670,
		"longitude" : -88.73333330,
		"name" : "Agua Fuerte"
	},
	{
		"id" : 2312952,
		"region_id" : 3222,
		"country_id" : 194,
		"latitude" : 13.71666670,
		"longitude" : -88.73333330,
		"name" : "Agua Helada"
	},
	{
		"id" : 2313006,
		"region_id" : 3222,
		"country_id" : 194,
		"latitude" : 13.76666670,
		"longitude" : -88.71666670,
		"name" : "Amatitán Abajo"
	},
	{
		"id" : 2313008,
		"region_id" : 3222,
		"country_id" : 194,
		"latitude" : 13.75000000,
		"longitude" : -88.73333330,
		"name" : "Amatitán Arriba"
	},
	{
		"id" : 2313031,
		"region_id" : 3222,
		"country_id" : 194,
		"latitude" : 13.68333330,
		"longitude" : -88.83333330,
		"name" : "Ánimas"
	},
	{
		"id" : 2313036,
		"region_id" : 3222,
		"country_id" : 194,
		"latitude" : 13.65000000,
		"longitude" : -88.80000000,
		"name" : "Antón Flores"
	},
	{
		"id" : 2313040,
		"region_id" : 3222,
		"country_id" : 194,
		"latitude" : 13.66666670,
		"longitude" : -88.78333330,
		"name" : "Apastepeq"
	},
	{
		"id" : 2313041,
		"region_id" : 3222,
		"country_id" : 194,
		"latitude" : 13.66666670,
		"longitude" : -88.78333330,
		"name" : "Apastepeque"
	},
	{
		"id" : 2313046,
		"region_id" : 3222,
		"country_id" : 194,
		"latitude" : 13.76666670,
		"longitude" : -88.63333330,
		"name" : "Aradillas"
	},
	{
		"id" : 2313097,
		"region_id" : 3222,
		"country_id" : 194,
		"latitude" : 13.43333330,
		"longitude" : -88.80000000,
		"name" : "Barrio Nuevo"
	},
	{
		"id" : 2313141,
		"region_id" : 3222,
		"country_id" : 194,
		"latitude" : 13.51666670,
		"longitude" : -88.70000000,
		"name" : "Buena Vista"
	},
	{
		"id" : 2313155,
		"region_id" : 3222,
		"country_id" : 194,
		"latitude" : 13.68333330,
		"longitude" : -88.76666670,
		"name" : "Calderas"
	},
	{
		"id" : 2313178,
		"region_id" : 3222,
		"country_id" : 194,
		"latitude" : 13.50000000,
		"longitude" : -88.80000000,
		"name" : "Campanario"
	},
	{
		"id" : 2313200,
		"region_id" : 3222,
		"country_id" : 194,
		"latitude" : 13.65000000,
		"longitude" : -88.81666670,
		"name" : "Candelaria"
	},
	{
		"id" : 2313202,
		"region_id" : 3222,
		"country_id" : 194,
		"latitude" : 13.70000000,
		"longitude" : -88.51666670,
		"name" : "Candelaria Lempa"
	},
	{
		"id" : 2313209,
		"region_id" : 3222,
		"country_id" : 194,
		"latitude" : 13.65000000,
		"longitude" : -88.60000000,
		"name" : "Canoas"
	},
	{
		"id" : 2313247,
		"region_id" : 3222,
		"country_id" : 194,
		"latitude" : 13.61666670,
		"longitude" : -88.76666670,
		"name" : "Cantón Dos Quebradas"
	},
	{
		"id" : 2313263,
		"region_id" : 3222,
		"country_id" : 194,
		"latitude" : 13.56666670,
		"longitude" : -88.70000000,
		"name" : "Cantón El Marquezado"
	},
	{
		"id" : 2313320,
		"region_id" : 3222,
		"country_id" : 194,
		"latitude" : 13.60000000,
		"longitude" : -88.81666670,
		"name" : "Cantón Los Laureles"
	},
	{
		"id" : 2313336,
		"region_id" : 3222,
		"country_id" : 194,
		"latitude" : 13.58333330,
		"longitude" : -88.66666670,
		"name" : "Cantón Obrajuelo Lempa"
	},
	{
		"id" : 2313350,
		"region_id" : 3222,
		"country_id" : 194,
		"latitude" : 13.45000000,
		"longitude" : -88.81666670,
		"name" : "Cantón Porrillo"
	},
	{
		"id" : 2313370,
		"region_id" : 3222,
		"country_id" : 194,
		"latitude" : 13.68333330,
		"longitude" : -88.68333330,
		"name" : "Cantón San Jacinto"
	},
	{
		"id" : 2313371,
		"region_id" : 3222,
		"country_id" : 194,
		"latitude" : 13.65000000,
		"longitude" : -88.88333330,
		"name" : "Cantón San Jerónimo"
	},
	{
		"id" : 2313377,
		"region_id" : 3222,
		"country_id" : 194,
		"latitude" : 13.63333330,
		"longitude" : -88.70000000,
		"name" : "Cantón San Nicolás"
	},
	{
		"id" : 2313378,
		"region_id" : 3222,
		"country_id" : 194,
		"latitude" : 13.58333330,
		"longitude" : -88.80000000,
		"name" : "Cantón San Rafael"
	},
	{
		"id" : 2313387,
		"region_id" : 3222,
		"country_id" : 194,
		"latitude" : 13.51666670,
		"longitude" : -88.68333330,
		"name" : "Cantón Tamarindo"
	},
	{
		"id" : 2313404,
		"region_id" : 3222,
		"country_id" : 194,
		"latitude" : 13.53333330,
		"longitude" : -88.70000000,
		"name" : "Caracol"
	},
	{
		"id" : 2313419,
		"region_id" : 3222,
		"country_id" : 194,
		"latitude" : 13.58333330,
		"longitude" : -88.66666670,
		"name" : "Carrizal"
	},
	{
		"id" : 2313428,
		"region_id" : 3222,
		"country_id" : 194,
		"latitude" : 13.48333330,
		"longitude" : -88.68333330,
		"name" : "Caserío Aceituno"
	},
	{
		"id" : 2313446,
		"region_id" : 3222,
		"country_id" : 194,
		"latitude" : 13.60000000,
		"longitude" : -88.65000000,
		"name" : "Caserío Chamoco"
	},
	{
		"id" : 2313453,
		"region_id" : 3222,
		"country_id" : 194,
		"latitude" : 13.43333330,
		"longitude" : -88.78333330,
		"name" : "Caserío Cruzadilla de Yaquerano"
	},
	{
		"id" : 2313455,
		"region_id" : 3222,
		"country_id" : 194,
		"latitude" : 13.60000000,
		"longitude" : -88.65000000,
		"name" : "Caserío Curunco"
	},
	{
		"id" : 2313466,
		"region_id" : 3222,
		"country_id" : 194,
		"latitude" : 13.61666670,
		"longitude" : -88.63333330,
		"name" : "Caserío El Brujo"
	},
	{
		"id" : 2313471,
		"region_id" : 3222,
		"country_id" : 194,
		"latitude" : 13.58333330,
		"longitude" : -88.66666670,
		"name" : "Caserío El Carrizal"
	},
	{
		"id" : 2313476,
		"region_id" : 3222,
		"country_id" : 194,
		"latitude" : 13.53333330,
		"longitude" : -88.71666670,
		"name" : "Caserío El Chorizo"
	},
	{
		"id" : 2313477,
		"region_id" : 3222,
		"country_id" : 194,
		"latitude" : 13.61666670,
		"longitude" : -88.60000000,
		"name" : "Caserío El Copinol"
	},
	{
		"id" : 2313480,
		"region_id" : 3222,
		"country_id" : 194,
		"latitude" : 13.61666670,
		"longitude" : -88.61666670,
		"name" : "Caserío El Coyolar"
	},
	{
		"id" : 2313488,
		"region_id" : 3222,
		"country_id" : 194,
		"latitude" : 13.63333330,
		"longitude" : -88.66666670,
		"name" : "Caserío El Junquillar"
	},
	{
		"id" : 2313503,
		"region_id" : 3222,
		"country_id" : 194,
		"latitude" : 13.63333330,
		"longitude" : -88.61666670,
		"name" : "Caserío El Pulguero"
	},
	{
		"id" : 2313505,
		"region_id" : 3222,
		"country_id" : 194,
		"latitude" : 13.61666670,
		"longitude" : -88.60000000,
		"name" : "Caserío El Rebelde"
	},
	{
		"id" : 2313510,
		"region_id" : 3222,
		"country_id" : 194,
		"latitude" : 13.46666670,
		"longitude" : -88.71666670,
		"name" : "Caserío El Socorro"
	},
	{
		"id" : 2313511,
		"region_id" : 3222,
		"country_id" : 194,
		"latitude" : 13.70000000,
		"longitude" : -88.70000000,
		"name" : "Caserío El Tablón"
	},
	{
		"id" : 2313522,
		"region_id" : 3222,
		"country_id" : 194,
		"latitude" : 13.75000000,
		"longitude" : -88.70000000,
		"name" : "Caserío Guacamayo"
	},
	{
		"id" : 2313524,
		"region_id" : 3222,
		"country_id" : 194,
		"latitude" : 13.65000000,
		"longitude" : -88.61666670,
		"name" : "Caserío Guachipilín"
	},
	{
		"id" : 2313540,
		"region_id" : 3222,
		"country_id" : 194,
		"latitude" : 13.55000000,
		"longitude" : -88.81666670,
		"name" : "Caserío La India"
	},
	{
		"id" : 2313544,
		"region_id" : 3222,
		"country_id" : 194,
		"latitude" : 13.65000000,
		"longitude" : -88.61666670,
		"name" : "Caserío La Línea"
	},
	{
		"id" : 2313550,
		"region_id" : 3222,
		"country_id" : 194,
		"latitude" : 13.68333330,
		"longitude" : -88.65000000,
		"name" : "Caserío Las Ánimas"
	},
	{
		"id" : 2313559,
		"region_id" : 3222,
		"country_id" : 194,
		"latitude" : 13.65000000,
		"longitude" : -88.56666670,
		"name" : "Caserío Las Lajas"
	},
	{
		"id" : 2313582,
		"region_id" : 3222,
		"country_id" : 194,
		"latitude" : 13.60000000,
		"longitude" : -88.60000000,
		"name" : "Caserío Los Jobos"
	},
	{
		"id" : 2313602,
		"region_id" : 3222,
		"country_id" : 194,
		"latitude" : 13.40000000,
		"longitude" : -88.73333330,
		"name" : "Caserío Pacún"
	},
	{
		"id" : 2313603,
		"region_id" : 3222,
		"country_id" : 194,
		"latitude" : 13.50000000,
		"longitude" : -88.75000000,
		"name" : "Caserío Palomar"
	},
	{
		"id" : 2313605,
		"region_id" : 3222,
		"country_id" : 194,
		"latitude" : 13.58333330,
		"longitude" : -88.65000000,
		"name" : "Caserío Pedregal"
	},
	{
		"id" : 2313607,
		"region_id" : 3222,
		"country_id" : 194,
		"latitude" : 13.55000000,
		"longitude" : -88.80000000,
		"name" : "Caserío Potrerito"
	},
	{
		"id" : 2313612,
		"region_id" : 3222,
		"country_id" : 194,
		"latitude" : 13.58333330,
		"longitude" : -88.73333330,
		"name" : "Caserío Río Frío"
	},
	{
		"id" : 2313613,
		"region_id" : 3222,
		"country_id" : 194,
		"latitude" : 13.58333330,
		"longitude" : -88.75000000,
		"name" : "Caserío Río Grande"
	},
	{
		"id" : 2313615,
		"region_id" : 3222,
		"country_id" : 194,
		"latitude" : 13.51666670,
		"longitude" : -88.71666670,
		"name" : "Caserío San Andrés Chota"
	},
	{
		"id" : 2313616,
		"region_id" : 3222,
		"country_id" : 194,
		"latitude" : 13.48333330,
		"longitude" : -88.73333330,
		"name" : "Caserío San Antonio"
	},
	{
		"id" : 2313620,
		"region_id" : 3222,
		"country_id" : 194,
		"latitude" : 13.38333330,
		"longitude" : -88.75000000,
		"name" : "Caserío San Carlos"
	},
	{
		"id" : 2313622,
		"region_id" : 3222,
		"country_id" : 194,
		"latitude" : 13.63333330,
		"longitude" : -88.68333330,
		"name" : "Caserío San Felipe"
	},
	{
		"id" : 2313625,
		"region_id" : 3222,
		"country_id" : 194,
		"latitude" : 13.55000000,
		"longitude" : -88.75000000,
		"name" : "Caserío San Jacinto"
	},
	{
		"id" : 2313630,
		"region_id" : 3222,
		"country_id" : 194,
		"latitude" : 13.71666670,
		"longitude" : -88.73333330,
		"name" : "Caserío San José"
	},
	{
		"id" : 2313638,
		"region_id" : 3222,
		"country_id" : 194,
		"latitude" : 13.63333330,
		"longitude" : -88.70000000,
		"name" : "Caserío San Nicolás"
	},
	{
		"id" : 2313639,
		"region_id" : 3222,
		"country_id" : 194,
		"latitude" : 13.66666670,
		"longitude" : -88.66666670,
		"name" : "Caserío San Pedro"
	},